{"version": 0.6, "generator": "Overpass API 0.7.62.11 87bfad18", "osm3s": {"timestamp_osm_base": "2026-07-01T20:27:00Z", "copyright": "The data included in this document is from www.openstreetmap.org. The data is made available under ODbL."}, "elements": [{"type": "node", "id": 34044418, "lat": 51.9608639, "lon": 4.466891, "tags": {"addr:city": "Rotterdam", "addr:housenumber": "151", "addr:postcode": "3053GL", "addr:street": "Peppelweg", "brand": "Albert Heijn", "brand:wikidata": "Q1653985", "brand:wikipedia": "nl:Albert Heijn (supermarkt)", "name": "Albert Heijn", "opening_hours": "Mo-Sa 08:00-22:00; Su 09:00-22:00", "phone": "+31 10 422 7476", "ref": "1561", "shop": "supermarket", "source": "BAG", "source:date": "2014-03-24", "website": "https://www.ah.nl/winkel/1561"}}, {"type": "node", "id": 34044420, "lat": 51.912715, "lon": 4.458232, "tags": {"addr:city": "Rotterdam", "addr:housenumber": "288B", "addr:postcode": "3021GS", "addr:street": "Nieuwe Binnenweg", "brand": "Albert Heijn", "brand:wikidata": "Q1653985", "brand:wikipedia": "nl:Albert Heijn (supermarkt)", "name": "Albert Heijn", "opening_hours": "Mo-Su 08:00-22:00", "phone": "+31 10 425 8711", "ref": "1367", "shop": "supermarket", "website": "https://www.ah.nl/winkel/1367", "wheelchair": "yes"}}, {"type": "node", "id": 34044421, "lat": 51.9307167, "lon": 4.4576859, "tags": {"addr:city": "Rotterdam", "addr:housenumber": "103", "addr:postcode": "3039HJ", "addr:street": "Statenweg", "brand": "Albert Heijn", "brand:wikidata": "Q1653985", "brand:wikipedia": "nl:Albert Heijn (supermarkt)", "name": "Albert Heijn", "opening_hours": "Mo-Sa 08:00-22:00; Su 09:00-22:00", "phone": "+31 10 467 0898", "ref": "1409", "shop": "supermarket", "source": "BAG", "source:date": "2014-03-24", "website": "https://www.ah.nl/winkel/1409"}}, {"type": "node", "id": 34044422, "lat": 51.9178008, "lon": 4.4448847, "tags": {"addr:city": "Rotterdam", "addr:housenumber": "76", "addr:postcode": "3022LD", "addr:street": "Mathenesserplein", "brand": "Albert Heijn", "brand:website": "https://www.ah.nl", "brand:wikidata": "Q1653985", "brand:wikipedia": "nl:Albert Heijn (supermarkt)", "dog": "no", "internet_access": "wlan", "internet_access:fee": "customers", "name": "Albert Heijn", "opening_hours": "Mo-Su,PH 08:00-22:00", "organic": "yes", "payment:cards": "yes", "payment:cash": "yes", "payment:qr_code": "no", "phone": "+31 10 425 3737", "ref": "1368", "shop": "supermarket", "website": "https://www.ah.nl/winkel/1368"}}, {"type": "node", "id": 34044435, "lat": 51.9112483, "lon": 4.4780746, "tags": {"addr:city": "Rotterdam", "addr:housenumber": "108", "addr:postcode": "3011BP", "addr:street": "Vasteland", "brand": "Albert Heijn", "brand:wikidata": "Q1653985", "brand:wikipedia": "nl:Albert Heijn (supermarkt)", "check_date": "2024-08-22", "name": "Albert Heijn", "opening_hours": "08:00-22:00", "phone": "+31 10 413 5550", "ref": "1263", "shop": "supermarket", "source": "BAG", "source:date": "2013-11-26", "website": "https://www.ah.nl/winkel/1263"}}, {"type": "node", "id": 34044436, "lat": 51.9282592, "lon": 4.4890106, "tags": {"addr:city": "Rotterdam", "addr:housenumber": "707", "addr:postcode": "3031CG", "addr:street": "Goudse Rijweg", "brand": "Albert Heijn", "brand:wikidata": "Q1653985", "brand:wikipedia": "nl:Albert Heijn (supermarkt)", "name": "Albert Heijn", "opening_hours": "Mo-Sa 08:00-20:00; Su 12:00-18:00", "phone": "+31 10 412 1903", "ref": "1414", "shop": "supermarket", "website": "https://www.ah.nl/winkel/1414"}}, {"type": "node", "id": 34044437, "lat": 51.9451639, "lon": 4.4810961, "tags": {"addr:city": "Rotterdam", "addr:housenumber": "45", "addr:postcode": "3051GJ", "addr:street": "Kleiweg", "brand": "Albert Heijn", "brand:website": "https://www.ah.nl/", "brand:wikidata": "Q1653985", "brand:wikipedia": "nl:Albert Heijn (supermarkt)", "name": "Albert Heijn", "opening_hours": "Mo-Sa 08:00-21:00; Su 10:00-20:00", "phone": "+31 10 461 2341", "ref": "8689", "shop": "supermarket", "source": "BAG", "source:date": "2014-02-11", "website": "https://www.ah.nl/winkel/8689", "wheelchair": "yes"}}, {"type": "node", "id": 34044440, "lat": 51.9286636, "lon": 4.5462089, "tags": {"addr:city": "Rotterdam", "addr:country": "NL", "addr:housenumber": "89", "addr:postcode": "3065JK", "addr:street": "Mia van IJperenplein", "brand": "Albert Heijn", "brand:website": "https://www.ah.nl/", "brand:wikidata": "Q1653985", "brand:wikipedia": "nl:Albert Heijn (supermarkt)", "name": "Albert Heijn", "opening_hours": "Mo-Th,Sa 08:00-20:00; Fr 08:00-21:00; Su 12:00-18:00", "phone": "+31 10 447 1330", "ref": "1592", "shop": "supermarket", "website": "https://www.ah.nl/winkel/1592"}}, {"type": "node", "id": 34045005, "lat": 51.896699, "lon": 4.5100087, "tags": {"addr:city": "Rotterdam", "addr:housenumber": "61", "addr:postcode": "3074GG", "addr:street": "Strijensestraat", "brand": "ALDI", "brand:wikidata": "Q41171373", "brand:wikipedia": "en:Aldi", "description": "Rotterdam, Strijensestraat 61-63", "name": "ALDI", "note": "ODBL clean: geen disclaimer/copyright aangetroffen op winkelgegevens Aldi (stand: juni 2012)", "shop": "supermarket", "source": "BAG", "source:date": "2014-03-24"}}, {"type": "node", "id": 34045006, "lat": 51.8734096, "lon": 4.470013, "tags": {"brand": "ALDI", "brand:website": "https://www.aldi.nl/", "brand:wikidata": "Q41171373", "brand:wikipedia": "nl:Aldi", "description": "Rotterdam,Plein 1953 Nr. 187", "name": "ALDI", "note": "ODBL clean: geen disclaimer/copyright aangetroffen op winkelgegevens Aldi (stand: juni 2012)", "shop": "supermarket"}}, {"type": "node", "id": 34045012, "lat": 51.9328868, "lon": 4.4712576, "tags": {"addr:city": "Rotterdam", "addr:housenumber": "8-10", "addr:postcode": "3037EP", "addr:street": "Eudokiaplein", "branch": "Rotterdam Bergpolder", "brand": "ALDI", "brand:wikidata": "Q41171373", "brand:wikipedia": "en:Aldi", "name": "ALDI", "note": "ODBL clean: geen disclaimer/copyright aangetroffen op winkelgegevens Aldi (stand: jan 2019)", "opening_hours": "Mo-Sa 08:00-20:00, Su 12:00-18:00", "operator": "ALDI Noord", "shop": "supermarket", "wheelchair": "yes"}}, {"type": "node", "id": 34045029, "lat": 51.9163326, "lon": 4.499788, "tags": {"addr:city": "Rotterdam", "addr:housenumber": "23A", "addr:postcode": "3071NA", "addr:street": "Maaskade", "brand": "ALDI", "brand:website": "https://www.aldi.nl/", "brand:wikidata": "Q41171373", "brand:wikipedia": "nl:Aldi", "name": "ALDI", "note": "ODBL clean: geen disclaimer/copyright aangetroffen op winkelgegevens Aldi (stand: juni 2012)", "shop": "supermarket", "wheelchair": "yes"}}, {"type": "node", "id": 34045482, "lat": 51.8962902, "lon": 4.5099096, "tags": {"addr:city": "Rotterdam", "addr:housenumber": "77", "addr:postcode": "3074GH", "addr:street": "Strijensestraat", "brand": "Albert Heijn", "brand:wikidata": "Q1653985", "brand:wikipedia": "nl:Albert Heijn (supermarkt)", "description": "Rotterdam", "name": "Albert Heijn", "opening_hours": "Mo-Th 08:00-20:00; Fr 08:00-21:00; Sa 08:00-20:00; Su 12:00-18:00", "phone": "+31 10 484 7947", "ref": "1830", "shop": "supermarket", "source": "BAG", "source:date": "2014-03-24", "website": "https://www.ah.nl/winkel/1830", "wheelchair": "yes"}}, {"type": "node", "id": 34045486, "lat": 51.9328876, "lon": 4.4707503, "tags": {"addr:city": "Rotterdam", "addr:housenumber": "12", "addr:postcode": "3037BT", "addr:street": "Eudokiaplein", "brand": "Albert Heijn", "brand:wikidata": "Q1653985", "brand:wikipedia": "nl:Albert Heijn (supermarkt)", "description": "Albert Heijn, Rotterdam", "name": "Albert Heijn", "opening_hours": "Mo-Th 08:00-20:00; Fr 08:00-21:00; Sa 08:00-20:00; Su 12:00-18:00", "phone": "+31 10 265 6378", "ref": "1822", "shop": "supermarket", "source": "BAG", "source:date": "2017-07-08", "website": "https://www.ah.nl/winkel/1822", "wheelchair": "yes"}}, {"type": "node", "id": 34046259, "lat": 51.9106899, "lon": 4.4986059, "tags": {"addr:city": "Rotterdam", "addr:country": "NL", "addr:housenumber": "33", "addr:postcode": "3071PS", "addr:street": "Vijf Werelddelen", "branch": "Rotterdam Vijf Werelddelen", "brand": "Jumbo", "brand:website": "https://www.jumbo.com", "brand:wikidata": "Q2262314", "brand:wikipedia": "nl:Jumbo Supermarkten", "name": "Jumbo", "note": "Winkelgegevens van website Jumbo mogen in OSM onder ODbL gebruikt worden (toestemming ontvangen op 15-6-2012)", "opening_hours": "Mo-Sa 08:00-21:00; Su 10:00-20:00", "phone": "+31 10 485 0111", "ref": "2805", "shop": "supermarket", "source": "BAG", "source:date": "2017-06-08", "website": "https://www.jumbo.com/winkel/rotterdam/jumbo-rotterdam-vijf-werelddelen"}}, {"type": "node", "id": 44557962, "lat": 51.9509571, "lon": 4.5612151}, {"type": "node", "id": 44559842, "lat": 51.9513472, "lon": 4.5610572}, {"type": "node", "id": 286884535, "lat": 51.9213425, "lon": 4.4821601, "tags": {"beauty": "tanning", "name": "La Costa zonnestudio", "shop": "beauty"}}, {"type": "node", "id": 286884993, "lat": 51.9153854, "lon": 4.4660027, "tags": {"addr:city": "Rotterdam", "addr:housenumber": "135", "addr:street": "Nieuwe Binnenweg", "check_date": "2025-09-29", "name": "Nono's", "opening_hours": "Mo-Sa 10:00-22:00; Su 12:00-22:00", "shop": "tobacco"}}, {"type": "node", "id": 290924768, "lat": 51.913837, "lon": 4.5208547, "tags": {"brand": "PLUS", "brand:wikidata": "Q1978981", "brand:wikipedia": "nl:PLUS (Nederlandse supermarkt)", "name": "PLUS", "shop": "supermarket", "website": "https://www.plus.nl/"}}, {"type": "node", "id": 370866948, "lat": 51.9246447, "lon": 4.5088969, "tags": {"addr:city": "Rotterdam", "addr:country": "NL", "addr:housenumber": "124", "addr:postcode": "3061WJ", "addr:street": "Lusthofstraat", "branch": "Rotterdam Lusthofstraat", "brand": "Blokker", "brand:website": "https://www.blokker.nl", "brand:wikidata": "Q33903645", "check_date": "2026-04-25", "name": "Blokker", "shop": "houseware", "source": "BAG", "source:date": "2014-03-24", "website": "https://www.blokker.nl/nl/vind-een-winkel/details/blokker-rotterdam-lusthofstraat/"}}, {"type": "node", "id": 403018605, "lat": 51.9328269, "lon": 4.4713932, "tags": {"addr:street": "Eudokiaplein", "brand": "Gall & Gall", "brand:wikidata": "Q13639185", "brand:wikipedia": "nl:Gall & Gall", "name": "Gall & Gall", "ref": "5040", "shop": "alcohol"}}, {"type": "node", "id": 410592100, "lat": 51.9318996, "lon": 4.4633961, "tags": {"addr:city": "Rotterdam", "addr:housenumber": "135", "addr:postcode": "3038EA", "addr:street": "Stadhoudersplein", "branch": "Blijdorp", "brand": "PLUS", "brand:website": "https://www.plus.nl", "brand:wikidata": "Q1978981", "brand:wikipedia": "nl:PLUS (Nederlandse supermarkt)", "check_date": "2025-07-22", "name": "PLUS", "opening_hours": "Mo-Sa 08:00-21:00; Su 09:00-21:00; PH 12:00-19:00", "phone": "+31 10 4664015", "post_office": "post_partner", "post_office:operator": "PostNL", "post_office:operator:wikidata": "Q5921598", "shop": "supermarket", "website": "https://www.plus.nl/supermarkten/rotterdam_plus-blijdorp_746", "wheelchair": "yes"}}, {"type": "node", "id": 429685278, "lat": 51.9040116, "lon": 4.458964, "tags": {"addr:city": "Rotterdam", "addr:housenumber": "116", "addr:postcode": "3024EJ", "addr:street": "Sint-Jobsweg", "brand": "Albert Heijn", "brand:wikidata": "Q1653985", "brand:wikipedia": "nl:Albert Heijn (supermarkt)", "name": "Albert Heijn", "opening_hours": "Mo-Th 08:00-20:00; Fr 08:00-21:00; Sa 08:00-20:00; Su 12:00-18:00", "phone": "+31 10 276 3263", "ref": "1636", "shop": "supermarket", "website": "https://www.ah.nl/winkel/1636"}}, {"type": "node", "id": 429685279, "lat": 51.9189765, "lon": 4.4768701, "tags": {"addr:city": "Rotterdam", "addr:housenumber": "121", "addr:postcode": "3012EN", "addr:street": "Lijnbaan", "brand": "Albert Heijn", "brand:wikidata": "Q1653985", "brand:wikipedia": "nl:Albert Heijn (supermarkt)", "name": "Albert Heijn", "opening_hours": "Mo-Th 08:00-20:00; Fr 08:00-21:00; Sa 08:00-20:00; Su 12:00-18:00", "phone": "+31 10 413 7133", "ref": "1540", "shop": "supermarket", "source": "BAG", "source:date": "2013-11-26", "website": "https://www.ah.nl/winkel/1540", "wheelchair": "yes"}}, {"type": "node", "id": 429685280, "lat": 51.9183447, "lon": 4.4803653, "tags": {"addr:city": "Rotterdam", "addr:housenumber": "131a", "addr:postcode": "3012AG", "addr:street": "Coolsingel", "brand": "Albert Heijn to go", "brand:wikidata": "Q77971185", "brand:wikipedia": "en:Albert Heijn", "fixme": "Adres is ingetrokken door de gemeente: contoleren of winkel is verhuisd?", "layer": "-1", "level": "-1", "name": "Albert Heijn to go", "official_name": "AH to go", "opening_hours": "Mo-We 06:30-20:00; Th 06:30-21:00; Fr 06:30-21:30; Sa 11:00-19:00; Su 12:00-19:00", "phone": "+31 10 240 9862", "ref": "5605", "shop": "convenience", "website": "https://www.ah.nl/winkel/5605", "wheelchair": "yes"}}, {"type": "node", "id": 429685286, "lat": 51.9504636, "lon": 4.554058, "tags": {"addr:city": "Rotterdam", "addr:housenumber": "36", "addr:postcode": "3067LX", "addr:street": "Poolsterstraat", "brand": "Albert Heijn", "brand:wikidata": "Q1653985", "brand:wikipedia": "nl:Albert Heijn (supermarkt)", "name": "Albert Heijn", "opening_hours": "Mo-Th 08:00-20:00; Fr 08:00-21:00; Sa 08:00-20:00; Su 12:00-17:30", "phone": "+31 10 455 8982", "ref": "1623", "shop": "supermarket", "source": "BAG", "source:date": "2021-12-22", "website": "https://www.ah.nl/winkel/1623"}}, {"type": "node", "id": 429685288, "lat": 51.9281544, "lon": 4.5098783, "tags": {"addr:city": "Rotterdam", "addr:housenumber": "149", "addr:postcode": "3061AA", "addr:street": "Oudedijk", "brand": "Albert Heijn", "brand:wikidata": "Q1653985", "brand:wikipedia": "nl:Albert Heijn (supermarkt)", "level": "0", "name": "Albert Heijn", "opening_hours": "Mo-Sa 07:00-22:00; Su 08:00-22:00", "phone": "+31 10 270 9681", "ref": "1509", "shop": "supermarket", "website": "https://www.ah.nl/winkel/1509", "wheelchair": "yes"}}, {"type": "node", "id": 467095742, "lat": 51.8910976, "lon": 4.4797934, "tags": {"addr:city": "Rotterdam", "addr:housenumber": "3", "addr:postcode": "3083RC", "addr:street": "Ebenha\u00ebzerstraat", "brand": "Etos", "brand:website": "https://www.etos.nl/", "brand:wikidata": "Q2609459", "brand:wikipedia": "nl:Etos", "name": "Etos", "opening_hours": "Mo-Sa 09:00-19:00; Su 12:00-19:00", "ref": "6142", "shop": "chemist", "website": "https://www.etos.nl/winkels/rotterdam/ebenhaezerstraat-3-6142/", "wheelchair": "yes"}}, {"type": "node", "id": 467095806, "lat": 51.8864327, "lon": 4.4902682, "tags": {"addr:city": "Rotterdam", "addr:housenumber": "743", "addr:postcode": "3083BJ", "addr:street": "Zuidplein Hoog", "brand": "Etos", "brand:wikidata": "Q2609459", "brand:wikipedia": "nl:Etos", "level": "2", "name": "Etos", "ref": "7202", "shop": "chemist", "website": "https://www.etos.nl/winkels/rotterdam/zuidplein-hoog-743-7202/", "wheelchair": "yes"}}, {"type": "node", "id": 467095842, "lat": 51.886631, "lon": 4.546892, "tags": {"addr:city": "Rotterdam", "addr:housenumber": "30", "addr:postcode": "3078AM", "addr:street": "Keizerswaard", "brand": "Etos", "brand:wikidata": "Q2609459", "brand:wikipedia": "nl:Etos", "name": "Etos", "ref": "7260", "shop": "chemist", "website": "https://www.etos.nl/winkels/rotterdam/keizerswaard-30-7260/"}}, {"type": "node", "id": 467095876, "lat": 51.9047635, "lon": 4.5039112, "tags": {"addr:city": "Rotterdam", "addr:housenumber": "332", "addr:postcode": "3071AR", "addr:street": "Vuurplaat", "brand": "Etos", "brand:wikidata": "Q2609459", "brand:wikipedia": "nl:Etos", "name": "Etos", "opening_hours": "Mo-Th,Sa 09:00-18:00; Fr 09:00-19:00; Su 11:00-18:00", "ref": "7323", "shop": "chemist", "source": "BAG", "source:date": "2014-02-11", "website": "https://www.etos.nl/winkels/rotterdam/vuurplaat-332-7323/"}}, {"type": "node", "id": 467095881, "lat": 51.9598083, "lon": 4.4714203, "tags": {"addr:city": "Rotterdam", "addr:housenumber": "110A", "addr:postcode": "3053GS", "addr:street": "Peppelweg", "brand": "Etos", "brand:website": "https://www.etos.nl/", "brand:wikidata": "Q2609459", "brand:wikipedia": "nl:Etos", "name": "Etos", "ref": "7363", "shop": "chemist", "website": "https://www.etos.nl/winkels/rotterdam/peppelweg-110-a-7363/"}}, {"type": "node", "id": 467095891, "lat": 51.9202077, "lon": 4.477457, "tags": {"addr:city": "Rotterdam", "addr:housenumber": "90", "addr:postcode": "3012ER", "addr:street": "Lijnbaan", "brand": "Etos", "brand:wikidata": "Q2609459", "brand:wikipedia": "nl:Etos", "name": "Etos", "ref": "7348", "shop": "chemist", "source": "BAG", "source:date": "2013-11-26", "website": "https://www.etos.nl/winkels/rotterdam/lijnbaan-90-7348/"}}, {"type": "node", "id": 467095920, "lat": 51.922674, "lon": 4.4723087, "tags": {"addr:city": "Rotterdam", "addr:housenumber": "16", "addr:postcode": "3012CW", "addr:street": "Plaza", "brand": "Etos", "brand:wikidata": "Q2609459", "brand:wikipedia": "nl:Etos", "check_date": "2022-10-26", "name": "Etos", "payment:american_express": "yes", "payment:maestro": "yes", "payment:mastercard": "yes", "payment:v_pay": "yes", "payment:visa": "yes", "ref": "7470", "shop": "chemist", "source": "BAG", "source:date": "2013-11-26", "website": "https://www.etos.nl/winkels/rotterdam/plaza-16-7470/", "wheelchair": "yes"}}, {"type": "node", "id": 467095981, "lat": 51.9190107, "lon": 4.4773641, "tags": {"addr:city": "Rotterdam", "addr:housenumber": "151", "addr:postcode": "3012EN", "addr:street": "Lijnbaan", "brand": "Etos", "brand:wikidata": "Q2609459", "brand:wikipedia": "nl:Etos", "name": "Etos", "ref": "7721", "shop": "chemist", "website": "https://www.etos.nl/winkels/rotterdam/lijnbaan-151-7721/", "wheelchair": "yes"}}, {"type": "node", "id": 467096025, "lat": 51.92043, "lon": 4.4827431, "tags": {"addr:city": "Rotterdam", "addr:housenumber": "191", "addr:postcode": "3011PM", "addr:street": "Hoogstraat", "brand": "Etos", "brand:wikidata": "Q2609459", "brand:wikipedia": "nl:Etos", "facebook": "https://www.facebook.com/EtosHoogstraat", "name": "Etos", "opening_hours": "Su,Mo 12:00-18:00; Tu-Th 09:30-18:00; Fr 09:30-21:00; Sa 09:30-18:00", "phone": "+31 10 411 5679", "ref": "7745", "shop": "chemist", "source": "BAG", "source:date": "2013-11-26", "website": "https://www.etos.nl/winkels/rotterdam/hoogstraat-191-7745/", "wheelchair": "yes"}}, {"type": "node", "id": 467096046, "lat": 51.9450633, "lon": 4.471996, "tags": {"addr:city": "Rotterdam", "addr:housenumber": "221-223", "addr:postcode": "3051XK", "addr:street": "Kleiweg", "brand": "Etos", "brand:wikidata": "Q2609459", "brand:wikipedia": "nl:Etos", "name": "Etos", "ref": "7919", "shop": "chemist", "website": "https://www.etos.nl/winkels/rotterdam/kleiweg-221-223-7919/"}}, {"type": "node", "id": 467096071, "lat": 51.9499537, "lon": 4.5542529, "tags": {"addr:city": "Rotterdam", "addr:housenumber": "21", "addr:postcode": "3067LX", "addr:street": "Poolsterstraat", "brand": "Mango", "brand:wikidata": "Q136503", "name": "Mango", "shop": "clothes", "source": "BAG", "source:date": "2014-03-24"}}, {"type": "node", "id": 467096073, "lat": 51.9323657, "lon": 4.4804375, "tags": {"addr:city": "Rotterdam", "addr:housenumber": "2-4", "addr:postcode": "3035AS", "addr:street": "Zwart Janstraat", "brand": "Etos", "brand:website": "https://www.etos.nl", "brand:wikidata": "Q2609459", "brand:wikipedia": "nl:Etos", "name": "Etos", "phone": "+31 10 4663912", "ref": "7900", "shop": "chemist", "website": "https://www.etos.nl/winkels/rotterdam/zwartjanstraat-2-4-7900/"}}, {"type": "node", "id": 483553009, "lat": 51.9039892, "lon": 4.4588582, "tags": {"addr:street": "Schiehavenkade", "brand": "Gall & Gall", "brand:wikidata": "Q13639185", "brand:wikipedia": "nl:Gall & Gall", "name": "Gall & Gall", "ref": "1636", "shop": "alcohol"}}, {"type": "node", "id": 483553078, "lat": 51.9323369, "lon": 4.481079, "tags": {"addr:city": "Rotterdam", "addr:housenumber": "84", "addr:postcode": "3035PR", "addr:street": "Jacob Catsstraat", "branch": "Rotterdam - Jacob Catsstraat", "brand": "Gall & Gall", "brand:website": "https://www.gall.nl", "brand:wikidata": "Q13639185", "brand:wikipedia": "nl:Gall & Gall", "name": "Gall & Gall", "phone": "+31 10 2437349", "ref": "5032", "shop": "alcohol", "source": "BAG", "source:date": "2014-02-11", "website": "https://www.gall.nl/winkels/details/?storeId=5032"}}, {"type": "node", "id": 483553260, "lat": 51.9629457, "lon": 4.5538305, "tags": {"addr:city": "Rotterdam", "addr:housenumber": "23", "addr:postcode": "3069EA", "addr:street": "Hesseplaats", "brand": "Gall & Gall", "brand:website": "https://www.gall.nl", "brand:wikidata": "Q13639185", "brand:wikipedia": "nl:Gall & Gall", "name": "Gall & Gall", "phone": "+31 10 2860232", "ref": "6628", "shop": "alcohol", "source": "BAG", "source:date": "2014-03-24", "website": "https://www.gall.nl/winkels/details/?storeId=6628"}}, {"type": "node", "id": 483553281, "lat": 51.8868169, "lon": 4.5467875, "tags": {"addr:city": "Rotterdam", "addr:housenumber": "41", "addr:postcode": "3078AL", "addr:street": "Keizerswaard", "brand": "Gall & Gall", "brand:wikidata": "Q13639185", "brand:wikipedia": "nl:Gall & Gall", "name": "Gall & Gall", "ref": "6671", "shop": "alcohol", "source": "BAG", "source:date": "2014-02-11"}}, {"type": "node", "id": 483553283, "lat": 51.9268409, "lon": 4.4621221, "tags": {"addr:city": "Rotterdam", "addr:housenumber": "45", "addr:postcode": "3039KM", "addr:street": "Bentinckplein", "brand": "Gall & Gall", "brand:wikidata": "Q13639185", "brand:wikipedia": "nl:Gall & Gall", "name": "Gall & Gall", "ref": "6670", "shop": "alcohol", "source": "BAG", "source:date": "2013-11-26", "wheelchair": "yes"}}, {"type": "node", "id": 483553304, "lat": 51.9190917, "lon": 4.4771958, "tags": {"addr:city": "Rotterdam", "addr:housenumber": "119", "addr:postcode": "3012EN", "addr:street": "Lijnbaan", "brand": "Gall & Gall", "brand:wikidata": "Q13639185", "brand:wikipedia": "nl:Gall & Gall", "name": "Gall & Gall", "ref": "6685", "shop": "alcohol", "source": "BAG", "source:date": "2013-11-26", "wheelchair": "yes"}}, {"type": "node", "id": 483553306, "lat": 51.9279463, "lon": 4.5096552, "tags": {"addr:city": "Rotterdam", "addr:housenumber": "149b", "addr:postcode": "3061AA", "addr:street": "Oudedijk", "brand": "Gall & Gall", "brand:wikidata": "Q13639185", "brand:wikipedia": "nl:Gall & Gall", "level": "0", "name": "Gall & Gall", "opening_hours": "Mo-Th 10:00-20:00; Fr 09:00-21:00; Sa 09:00-20:00; Su 13:00-18:00", "ref": "6683", "shop": "alcohol"}}, {"type": "node", "id": 483553394, "lat": 51.950447, "lon": 4.5546784, "tags": {"addr:city": "Rotterdam", "addr:housenumber": "48", "addr:postcode": "3067LX", "addr:street": "Poolsterstraat", "brand": "Jack & Jones", "brand:wikidata": "Q6077665", "name": "Jack & Jones", "shop": "clothes"}}, {"type": "node", "id": 483553736, "lat": 51.8881607, "lon": 4.4918951, "tags": {"addr:street": "Zuidplein", "brand": "Gall & Gall", "brand:wikidata": "Q13639185", "brand:wikipedia": "nl:Gall & Gall", "layer": "1", "name": "Gall & Gall", "ref": "7054", "shop": "alcohol"}}, {"type": "node", "id": 483553738, "lat": 51.8910634, "lon": 4.480259, "tags": {"addr:city": "Rotterdam", "addr:housenumber": "156", "addr:street": "Pleinweg", "brand": "Gall & Gall", "brand:wikidata": "Q13639185", "brand:wikipedia": "nl:Gall & Gall", "name": "Gall & Gall", "opening_hours": "Mo-Fr 10:00-20:00; Sa 09:00-20:00; Su 13:00-18:00", "ref": "7052", "shop": "alcohol"}}, {"type": "node", "id": 483554178, "lat": 51.9601039, "lon": 4.4700845, "tags": {"addr:city": "Rotterdam", "addr:housenumber": "142A", "addr:postcode": "3053GV", "addr:street": "Peppelweg", "brand": "Gall & Gall", "brand:wikidata": "Q13639185", "name": "Gall & Gall", "opening_hours": "Tu-Th 09:30-19:00; Fr-Sa 09:00-19:00; Mo 09:30-18:00; Su 12:00-18:00", "ref": "8138", "shop": "alcohol", "source": "BAG", "source:date": "2014-03-24", "website": "https://www.gall.nl/winkels/details/rotterdam-peppelweg-142", "wheelchair": "yes"}}, {"type": "node", "id": 483554312, "lat": 51.9286828, "lon": 4.5465289, "tags": {"addr:city": "Rotterdam", "addr:housenumber": "85", "addr:postcode": "3065JK", "addr:street": "Mia van IJperenplein", "brand": "Gall & Gall", "brand:wikidata": "Q13639185", "brand:wikipedia": "nl:Gall & Gall", "name": "Gall & Gall", "phone": "+31 10 202 2455", "ref": "8163", "shop": "alcohol", "source": "BAG", "source:date": "2014-03-24"}}, {"type": "node", "id": 483554580, "lat": 51.9193777, "lon": 4.4654142, "tags": {"addr:street": "1e Middellandstraat", "brand": "Gall & Gall", "brand:wikidata": "Q13639185", "brand:wikipedia": "nl:Gall & Gall", "name": "Gall & Gall", "ref": "8290", "shop": "alcohol"}}, {"type": "node", "id": 567902964, "lat": 51.9160998, "lon": 4.4420176, "tags": {"addr:city": "Rotterdam", "addr:country": "NL", "addr:housenumber": "13", "addr:postcode": "3027HC", "addr:street": "Mathenesserweg", "branch": "Rotterdam De Brug", "brand": "Wereldwinkel", "brand:website": "https://wereldwinkels.nl", "brand:wikidata": "Q136703550", "fixme": "Filiaal wordt niet vermeld op website Wereldwereld. Bestaat deze nog?", "name": "Wereldwinkel", "shop": "gift"}}, {"type": "node", "id": 567902992, "lat": 51.9363597, "lon": 4.4274073, "tags": {"addr:city": "Rotterdam", "addr:country": "NL", "addr:housenumber": "132A", "addr:postcode": "3042AE", "addr:street": "Burgemeester Baumannlaan", "branch": "Rotterdam Overschie", "brand": "Wereldwinkel", "brand:website": "https://wereldwinkels.nl", "brand:wikidata": "Q136703550", "fixme": "Filiaal wordt niet vermeld op website Wereldwereld. Bestaat deze nog?", "name": "Wereldwinkel", "shop": "gift", "source": "BAG", "source:date": "2014-02-11"}}, {"type": "node", "id": 567902999, "lat": 51.884913, "lon": 4.5104753, "tags": {"addr:city": "Rotterdam", "addr:country": "NL", "addr:housenumber": "273a", "addr:postcode": "3075GE", "addr:street": "Groenezoom", "branch": "Rotterdam Vreewijk", "brand": "Wereldwinkel", "brand:website": "https://wereldwinkels.nl", "brand:wikidata": "Q136703550", "email": "wereldwinkelvreewijk@hccnet.nl", "fixme": "Filiaal wordt niet vermeld op website Wereldwereld. Bestaat deze nog?", "name": "Wereldwinkel", "phone": "+31 10 485 2581", "shop": "gift", "website": "http://www.vreewijk.wereldwinkel.nl/"}}, {"type": "node", "id": 567903007, "lat": 51.923845, "lon": 4.4880127, "tags": {"addr:city": "Rotterdam", "addr:country": "NL", "addr:housenumber": "9", "addr:postcode": "3011NB", "addr:street": "Mariniersweg", "branch": "Rotterdam Centrum", "brand": "Wereldwinkel", "brand:website": "https://wereldwinkels.nl", "brand:wikidata": "Q136703550", "check_date": "2025-08-11", "check_date:opening_hours": "2022-08-03", "email": "info@wereldwinkelrotterdamcentrum.nl", "fair_trade": "only", "name": "Wereldwinkel", "opening_hours": "Mo 12:00-20:00; Tu-Fr 10:00-20:00; Sa 10:00-18:00", "phone": "+31 10 411 9694", "shop": "gift", "website": "https://www.rotterdamcentrum.wereldwinkels.nl"}}, {"type": "node", "id": 581993372, "lat": 51.9164072, "lon": 4.4706905, "tags": {"addr:city": "Rotterdam", "addr:housenumber": "24-30", "addr:postcode": "3015BA", "addr:street": "Nieuwe Binnenweg", "brand": "Dirk", "brand:wikidata": "Q17502722", "name": "Dirk", "old_name": "Dirk van den Broek", "shop": "supermarket", "wheelchair": "yes"}}, {"type": "node", "id": 582267943, "lat": 51.9516826, "lon": 4.5520989, "tags": {"addr:city": "Rotterdam", "addr:housenumber": "50", "addr:postcode": "3067GC", "addr:street": "Prins Alexanderplein", "brand": "Albert Heijn to go", "brand:wikidata": "Q77971185", "name": "Albert Heijn to go", "official_name": "AH to go", "opening_hours": "Mo-Fr 06:30-20:00; Sa 10:00-19:00", "operator": "NS Stations", "operator:website": "https://www.nsstations.nl", "operator:wikidata": "Q2249580", "phone": "+31 88 6714512", "ref": "5879", "shop": "convenience", "source": "BAG", "source:date": "2021-07-04", "toilets:wheelchair": "no", "website": "https://www.ah.nl/winkel/5879", "wheelchair": "yes"}}, {"type": "node", "id": 600512855, "lat": 51.9202488, "lon": 4.478871, "tags": {"addr:city": "Rotterdam", "addr:housenumber": "105", "addr:postcode": "3012AG", "addr:street": "Coolsingel", "branch": "Rotterdam", "brand": "De Bijenkorf", "brand:wikidata": "Q2063937", "brand:wikipedia": "nl:De Bijenkorf (warenhuis)", "internet_access": "wlan", "name": "De Bijenkorf", "opening_hours": "Mo 11:00-20:00; Tu-Th 10:00-20:00; Fr 10:00-21:00; Sa 10:00-20:00; Su 11:00-19:00", "shop": "department_store", "source": "BAG", "source:date": "2013-11-26", "toilets": "yes", "toilets:wheelchair": "yes", "website": "https://www.debijenkorf.nl/rotterdam", "wheelchair": "yes", "wikidata": "Q2181857", "wikimedia_commons": "Category:Bijenkorf Rotterdam", "wikipedia": "nl:De Bijenkorf (Rotterdam)"}}, {"type": "node", "id": 602282864, "lat": 51.9174497, "lon": 4.4544593, "tags": {"addr:city": "Rotterdam", "addr:country": "NL", "addr:street": "Vierambachtsstraat", "name": "Richard Visser's gebakkraam", "operator": "Richard Visser", "remark": "only in winter", "shop": "bakery"}}, {"type": "node", "id": 628220062, "lat": 51.926857, "lon": 4.4625314, "tags": {"addr:city": "Rotterdam", "addr:housenumber": "139B", "addr:postcode": "3039AJ", "addr:street": "Walenburgerweg", "brand": "Dirk", "brand:wikidata": "Q17502722", "name": "Dirk", "old_name": "Dirk van den Broek", "opening_hours": "Mo-Sa 08:00-21:00; Su 12:00-20:00", "phone": "+31 88 313 4635", "shop": "supermarket", "website": "https://www.dirk.nl/winkels/rotterdam/schepenstraat/80", "wheelchair": "yes"}}, {"type": "node", "id": 628220842, "lat": 51.9267139, "lon": 4.4622461, "tags": {"addr:city": "Rotterdam", "addr:housenumber": "157", "addr:postcode": "3039AJ", "addr:street": "Walenburgerweg", "check_date": "2026-04-26", "shop": "vacant", "source": "BAG", "source:date": "2013-11-26", "wheelchair": "yes"}}, {"type": "node", "id": 663296685, "lat": 51.9184431, "lon": 4.4765123, "tags": {"addr:city": "Rotterdam", "addr:housenumber": "378", "addr:postcode": "3012GR", "addr:street": "Karel Doormanstraat", "alt_name": "Pearle Opticiens", "branch": "Rotterdam - Karel Doorman", "brand": "Pearle", "brand:website": "https://www.pearle.nl", "brand:wikidata": "Q2231148", "brand:wikipedia": "nl:Pearle", "name": "Pearle", "opening_hours": "Mo 12:00-17:30; Tu-Fr 09:30-17:30; Sa 09:30-17:00; Su 12:00-17:00", "phone": "+31 10 414 8192", "shop": "optician", "source": "BAG", "source:date": "2013-11-26", "website": "https://www.pearle.nl/opticien/rotterdam/karel-doormanstraat-378"}}, {"type": "node", "id": 663310825, "lat": 51.9181228, "lon": 4.4763058, "tags": {"addr:city": "Rotterdam", "addr:housenumber": "469A", "addr:postcode": "3012GH", "addr:street": "Karel Doormanstraat", "contact:email": "info@theemaas.nl", "contact:phone": "+31 10 411 1213", "name": "Theemaas", "opening_hours": "Tu-Fr 09:00-17:30; Su 12:00-17:00; Mo off", "shop": "tea", "source": "BAG", "source:date": "2013-11-26", "website": "https://www.theemaas.nl/"}}, {"type": "node", "id": 663312354, "lat": 51.9606451, "lon": 4.5350934, "tags": {"addr:city": "Rotterdam", "addr:housenumber": "2", "addr:postcode": "3069KV", "addr:street": "Binnenhof", "brand": "PLUS", "brand:wikidata": "Q1978981", "brand:wikipedia": "nl:PLUS (Nederlandse supermarkt)", "name": "PLUS", "opening_hours": "Mo-Sa 08:00-21:00; Su 12:00-20:00", "phone": "+31 10 420 5090", "shop": "supermarket"}}, {"type": "node", "id": 663312557, "lat": 51.960454, "lon": 4.5324457, "tags": {"brand": "ALDI", "brand:wikidata": "Q41171373", "brand:wikipedia": "en:Aldi", "name": "ALDI", "note": "ODBL clean: geen disclaimer/copyright aangetroffen op winkelgegevens Aldi (stand: juni 2012)", "opening_hours": "Mo-Fr 08:00-20:00; Sa 08:00-18:00; Su 12:00-17:00", "shop": "supermarket"}}, {"type": "node", "id": 663312563, "lat": 51.9594531, "lon": 4.534415, "tags": {"addr:city": "Rotterdam", "addr:housenumber": "25", "addr:postcode": "3068JK", "addr:street": "Niels Bohrplaats", "brand": "Lidl", "brand:website": "https://www.lidl.nl/", "brand:wikidata": "Q151954", "brand:wikipedia": "nl:Lidl", "name": "Lidl", "opening_hours": "Mo-Sa 08:00-21:00; Su 09:00-20:00", "operator": "Lidl Nederland GmbH", "shop": "supermarket", "source": "BAG", "source:date": "2014-03-24", "website": "https://www.lidl.nl/s/nl-NL/filialen/rotterdam/niels-bohrplaats-25/"}}, {"type": "node", "id": 681851481, "lat": 51.8835315, "lon": 4.4693463}, {"type": "node", "id": 681859913, "lat": 51.8834419, "lon": 4.4693299}, {"type": "node", "id": 681862717, "lat": 51.8882885, "lon": 4.4919177}, {"type": "node", "id": 681863660, "lat": 51.8855539, "lon": 4.4900113}, {"type": "node", "id": 681891348, "lat": 51.8655778, "lon": 4.4805417}, {"type": "node", "id": 681894167, "lat": 51.95218, "lon": 4.5634842}, {"type": "node", "id": 681898237, "lat": 51.887811, "lon": 4.4918933}, {"type": "node", "id": 681903043, "lat": 51.8725118, "lon": 4.5322983}, {"type": "node", "id": 681918372, "lat": 51.9514235, "lon": 4.5612713}, {"type": "node", "id": 681919616, "lat": 51.8726352, "lon": 4.5323074}, {"type": "node", "id": 681924970, "lat": 51.8656518, "lon": 4.480204}, {"type": "node", "id": 681934477, "lat": 51.9516333, "lon": 4.5607935}, {"type": "node", "id": 681935791, "lat": 51.8724256, "lon": 4.5326106}, {"type": "node", "id": 681946134, "lat": 51.9516096, "lon": 4.5612951}, {"type": "node", "id": 681949333, "lat": 51.8876987, "lon": 4.4916546}, {"type": "node", "id": 681955822, "lat": 51.9517771, "lon": 4.5639168}, {"type": "node", "id": 681962141, "lat": 51.8876913, "lon": 4.4916563}, {"type": "node", "id": 681969652, "lat": 51.8871738, "lon": 4.4899705}, {"type": "node", "id": 681976129, "lat": 51.8877248, "lon": 4.491724}, {"type": "node", "id": 681977620, "lat": 51.8885679, "lon": 4.4908088}, {"type": "node", "id": 681983254, "lat": 51.8870009, "lon": 4.4913392}, {"type": "node", "id": 681996527, "lat": 51.8882003, "lon": 4.4921488}, {"type": "node", "id": 681999636, "lat": 51.8837709, "lon": 4.4692869}, {"type": "node", "id": 682014214, "lat": 51.8834479, "lon": 4.4692443}, {"type": "node", "id": 682017361, "lat": 51.888321, "lon": 4.4918679}, {"type": "node", "id": 682019081, "lat": 51.8884647, "lon": 4.4912565}, {"type": "node", "id": 682024167, "lat": 51.8866619, "lon": 4.4911337}, {"type": "node", "id": 682030986, "lat": 51.8884887, "lon": 4.4911542}, {"type": "node", "id": 682034958, "lat": 51.9517579, "lon": 4.5636628}, {"type": "node", "id": 682035276, "lat": 51.8866158, "lon": 4.491337}, {"type": "node", "id": 682039497, "lat": 51.8861143, "lon": 4.4892865}, {"type": "node", "id": 682057154, "lat": 51.8884676, "lon": 4.4912395}, {"type": "node", "id": 682058797, "lat": 51.8878113, "lon": 4.4920638}, {"type": "node", "id": 682059600, "lat": 51.9514299, "lon": 4.5612594}, {"type": "node", "id": 682072518, "lat": 51.8882503, "lon": 4.4919291}, {"type": "node", "id": 682074311, "lat": 51.8854172, "lon": 4.4906176}, {"type": "node", "id": 682081818, "lat": 51.8656918, "lon": 4.4805018}, {"type": "node", "id": 682088484, "lat": 51.9507198, "lon": 4.561526}, {"type": "node", "id": 682089190, "lat": 51.9519589, "lon": 4.5605381}, {"type": "node", "id": 682111656, "lat": 51.8655378, "lon": 4.4802439}, {"type": "node", "id": 682116865, "lat": 51.9514385, "lon": 4.5612461}, {"type": "node", "id": 682122949, "lat": 51.8723802, "lon": 4.5320632}, {"type": "node", "id": 682134336, "lat": 51.9516057, "lon": 4.5605176}, {"type": "node", "id": 682135893, "lat": 51.8884254, "lon": 4.4919325}, {"type": "node", "id": 682154194, "lat": 51.8884788, "lon": 4.4911972}, {"type": "node", "id": 682156911, "lat": 51.8724993, "lon": 4.5326813}, {"type": "node", "id": 682161008, "lat": 51.8722443, "lon": 4.5324364}, {"type": "node", "id": 682181900, "lat": 51.8877089, "lon": 4.4916767}, {"type": "node", "id": 682183675, "lat": 51.8723391, "lon": 4.5325274}, {"type": "node", "id": 682189397, "lat": 51.8877816, "lon": 4.4918543}, {"type": "node", "id": 682192639, "lat": 51.8870207, "lon": 4.4912532}, {"type": "node", "id": 682199657, "lat": 51.9509818, "lon": 4.5614804}, {"type": "node", "id": 694562262, "lat": 51.921695, "lon": 4.557476, "tags": {"addr:city": "Rotterdam", "addr:housenumber": "14-20", "addr:postcode": "3065EE", "addr:street": "Steve Bikoplaats", "branch": "Capelsebrug", "brand": "SPAR city", "brand:website": "https://www.spar.nl/city/", "brand:wikidata": "Q124630664", "check_date:opening_hours": "2026-03-02", "email": "sparcapelsebrug@despar.info", "name": "SPAR city", "opening_hours": "Mo-Fr 07:00-21:00; Sa 08:00-21:00; Su 09:00-19:00", "operator": "SPAR", "operator:wikidata": "Q610492", "phone": "+31 10 2540326", "shop": "convenience", "website": "https://www.spar.nl/winkels/spar-city-capelsebrug-263/"}}, {"type": "node", "id": 728391912, "lat": 51.9267725, "lon": 4.4619281, "tags": {"addr:city": "Rotterdam", "addr:housenumber": "130", "addr:postcode": "3039KR", "addr:street": "Bentinckplein", "name": "Ronald de Ridder", "shop": "florist", "source": "BAG", "source:date": "2013-11-26", "wheelchair": "limited"}}, {"type": "node", "id": 792621135, "lat": 51.980319, "lon": 4.5830911, "tags": {"addr:city": "Rotterdam", "addr:housenumber": "52", "addr:postcode": "3059XW", "addr:street": "Maltaplein", "brand": "Albert Heijn", "brand:wikidata": "Q1653985", "brand:wikipedia": "nl:Albert Heijn (supermarkt)", "name": "Albert Heijn", "opening_hours": "Mo-Th 08:00-20:00; Fr 08:00-21:00; Sa 08:00-20:00; Su 12:00-17:00", "phone": "+31 10 222 2846", "ref": "1453", "shop": "supermarket", "website": "https://www.ah.nl/winkel/1453"}}, {"type": "node", "id": 810734319, "lat": 51.9144784, "lon": 4.4710759, "tags": {"addr:city": "Rotterdam", "addr:housenumber": "25", "addr:postcode": "3015CB", "addr:street": "Museumpark", "name": "NAi Boekverkopers", "name:en": "NAi Booksellers", "name:nl": "NAi Boekverkopers", "shop": "books", "source": "BAG", "source:date": "2013-11-26", "website": "https://www.naibooksellers.nl/"}}, {"type": "node", "id": 835822357, "lat": 51.877359, "lon": 4.5200224, "tags": {"addr:city": "Rotterdam", "addr:country": "NL", "addr:housenumber": "281", "addr:postcode": "3076EP", "addr:street": "Spinozaweg", "brand": "Primera", "brand:website": "https://www.primera.nl", "brand:wikidata": "Q2176149", "name": "Primera", "opening_hours": "Mo 11:00-18:00, Tu-Fr 09:00-18:00; Sa 09:00-17:00", "post_office": "post_partner", "post_office:brand": "PostNL", "post_office:parcel_from": "yes", "post_office:parcel_to": "yes", "post_office:stamps": "yes", "shop": "newsagent", "source": "BAG", "source:date": "2014-03-24", "website": "https://www.primera.nl/primera-lombardijen", "wheelchair": "limited"}}, {"type": "node", "id": 835822402, "lat": 51.8767862, "lon": 4.5251354, "tags": {"addr:city": "Rotterdam", "addr:country": "NL", "addr:housenumber": "20", "addr:postcode": "3076AH", "addr:street": "Pliniusstraat", "name": "Si-De", "shop": "butcher", "source": "BAG", "source:date": "2014-02-11", "wheelchair": "yes"}}, {"type": "node", "id": 835822433, "lat": 51.8767856, "lon": 4.5259348, "tags": {"addr:city": "Rotterdam", "addr:country": "NL", "addr:housenumber": "4", "addr:postcode": "3076AH", "addr:street": "Pliniusstraat", "name": "Tangermarkt", "shop": "supermarket", "source": "BAG", "source:date": "2014-02-11", "wheelchair": "yes"}}, {"type": "node", "id": 839117319, "lat": 51.918134, "lon": 4.4180955, "tags": {"addr:city": "Rotterdam", "addr:housenumber": "6", "addr:postcode": "3028XX", "addr:street": "Pinkstraat", "branch": "Rotterdam Pinkstraat", "brand": "Dirk", "brand:website": "https://www.dirk.nl", "brand:wikidata": "Q17502722", "brand:wikipedia": "nl:Dirk (supermarkt)", "name": "Dirk", "old_name": "Dirk van den Broek", "opening_hours": "Mo-Sa 07:00-22:00; Su 09:00-22:00", "phone": "+31 88 313 4615", "shop": "supermarket", "source": "BAG", "source:date": "2014-03-24", "website": "https://www.dirk.nl/winkels/rotterdam/pinkstraat/76"}}, {"type": "node", "id": 848888846, "lat": 51.9172449, "lon": 4.4195857, "tags": {"created_by": "iLOE 1.9", "name": "Dirck-III", "shop": "alcohol"}}, {"type": "node", "id": 917275144, "lat": 51.8789601, "lon": 4.5231518, "tags": {"addr:city": "Rotterdam", "addr:country": "NL", "addr:housenumber": "214-222", "addr:postcode": "3076AZ", "addr:street": "Zenostraat", "name": "Lombardijen Interieur", "opening_hours": "Tu-Fr 09:00-17:30; Sa 09:30-16:30", "phone": "+31 10 419 9079", "shop": "furniture", "website": "https://www.lombardijeninterieur.nl/"}}, {"type": "node", "id": 918057237, "lat": 51.8786028, "lon": 4.5163916, "tags": {"addr:city": "Rotterdam", "addr:country": "NL", "addr:housenumber": "60-66", "addr:postcode": "3076DT", "addr:street": "Schopenhauerweg", "branch": "Lombardijen", "brand": "Hubo", "brand:wikidata": "Q5473953", "brand:wikipedia": "nl:Hubo Nederland", "name": "Hubo", "shop": "doityourself", "website": "https://www.hubo.nl/lombardijen"}}, {"type": "node", "id": 919677996, "lat": 51.8768074, "lon": 4.5256207, "tags": {"addr:city": "Rotterdam", "addr:country": "NL", "addr:housenumber": "10", "addr:postcode": "3076AH", "addr:street": "Pliniusstraat", "description": "Turkse supermarkt", "name": "Supermarkt Zidan", "shop": "convenience", "source": "BAG", "source:date": "2014-02-11"}}, {"type": "node", "id": 919677997, "lat": 51.8786648, "lon": 4.5172186, "tags": {"addr:city": "Rotterdam", "addr:housenumber": "65-69", "addr:postcode": "3076DA", "addr:street": "Bierens de Haanweg", "name": "De Dierenvriend Rotterdam", "phone": "+31 10 419 2923", "shop": "pet", "website": "https://www.dedierenvriend.nl/"}}, {"type": "node", "id": 919677998, "lat": 51.8767961, "lon": 4.5254639, "tags": {"addr:city": "Rotterdam", "addr:country": "NL", "addr:housenumber": "14", "addr:postcode": "3076AH", "addr:street": "Pliniusstraat", "description": "Turkse bakker", "name": "Firat Firini", "shop": "bakery", "source": "BAG", "source:date": "2014-02-11", "wheelchair": "yes"}}, {"type": "node", "id": 919677999, "lat": 51.8776788, "lon": 4.517231, "tags": {"addr:city": "Rotterdam", "addr:housenumber": "22-28", "addr:postcode": "3076DC", "addr:street": "Bierens de Haanweg", "branch": "Panta Reizen", "brand": "VakantieXperts", "brand:wikidata": "Q114904977", "name": "VakantieXperts", "phone": "+31 10 492 5492", "shop": "travel_agency", "website": "https://www.vx.nl/pantareizen.aspx"}}, {"type": "node", "id": 919678001, "lat": 51.8772475, "lon": 4.5180977, "tags": {"addr:city": "Rotterdam", "addr:housenumber": "399", "addr:postcode": "3076ET", "addr:street": "Spinozaweg", "email": "info@fransvanderleije.demon.nl", "name": "Frans van der Leije", "shop": "electronics"}}, {"type": "node", "id": 919678004, "lat": 51.8784831, "lon": 4.5166866, "tags": {"addr:city": "Rotterdam", "addr:housenumber": "70", "addr:postcode": "3076DT", "addr:street": "Schopenhauerweg", "name": "La Riz Haarstudio", "phone": "+31 10 419 5927", "shop": "convenience"}}, {"type": "node", "id": 919678008, "lat": 51.875493, "lon": 4.517053, "tags": {"addr:city": "Rotterdam", "addr:country": "NL", "addr:housenumber": "10", "addr:postcode": "3076EV", "addr:street": "Van de Woestijnestraat", "name": "Fietshemel", "shop": "bicycle", "source": "BAG", "source:date": "2014-02-11", "website": "https://www.fietshemel.nl/"}}, {"type": "node", "id": 919678014, "lat": 51.8779644, "lon": 4.5175891, "tags": {"addr:city": "Rotterdam", "addr:country": "NL", "addr:housenumber": "20", "addr:postcode": "3076DC", "addr:street": "Bierens de Haanweg", "name": "John Tates", "shop": "hairdresser"}}, {"type": "node", "id": 919678015, "lat": 51.8755378, "lon": 4.5171084, "tags": {"addr:city": "Rotterdam", "addr:country": "NL", "addr:housenumber": "4-8", "addr:postcode": "3076EV", "addr:street": "Van de Woestijnestraat", "brand": "Wibra", "brand:wikidata": "Q943405", "brand:wikipedia": "nl:Wibra", "name": "Wibra", "shop": "general"}}, {"type": "node", "id": 919678017, "lat": 51.8784316, "lon": 4.5168298, "tags": {"addr:city": "Rotterdam", "addr:housenumber": "74", "addr:postcode": "3076DA", "addr:street": "Bierens de Haanweg", "name": "BVA makelaardij", "phone": "+31 10 304 0198", "shop": "estate_agent", "website": "https://www.bvamakelaardij.nl/"}}, {"type": "node", "id": 919678018, "lat": 51.8785526, "lon": 4.517074, "tags": {"addr:city": "Rotterdam", "addr:housenumber": "71-73", "addr:postcode": "3076DA", "addr:street": "Bierens de Haanweg", "name": "Avondwinkel Lombardijen", "shop": "convenience"}}, {"type": "node", "id": 919678019, "lat": 51.8774961, "lon": 4.517863, "tags": {"addr:city": "Rotterdam", "addr:housename": "47", "addr:postcode": "3076CC", "addr:street": "Bollandstraat", "name": "Deniz auto", "phone": "+31 10 419 0462", "shop": "car_repair"}}, {"type": "node", "id": 919678025, "lat": 51.8772569, "lon": 4.5183287, "tags": {"addr:city": "Rotterdam", "addr:country": "NL", "addr:housenumber": "395", "addr:postcode": "3076ET", "addr:street": "Spinozaweg", "brand": "Kruidvat", "brand:website": "https://www.kruidvat.nl", "brand:wikidata": "Q2226366", "brand:wikipedia": "nl:Kruidvat", "name": "Kruidvat", "opening_hours": "Mo 10:30-18:00; Tu-Th,Sa 09:00-18:00; Fr 09:00-20:00; Su 12:00-18:00; PH off", "operator": "Kruidvat", "ref": "7373", "shop": "chemist", "source": "BAG", "website": "https://www.kruidvat.nl/store/drogisterij-kruidvat-7373", "wheelchair": "yes"}}, {"type": "node", "id": 919678026, "lat": 51.8767945, "lon": 4.5253313, "tags": {"addr:city": "Rotterdam", "addr:country": "NL", "addr:housenumber": "16", "addr:postcode": "3076AH", "addr:street": "Pliniusstraat", "name": "Breins Kids Fashion", "shop": "clothes", "source": "BAG", "source:date": "2014-02-11"}}, {"type": "node", "id": 919678028, "lat": 51.8757212, "lon": 4.5172671, "tags": {"addr:city": "Rotterdam", "addr:country": "NL", "addr:housenumber": "2", "addr:postcode": "3076EV", "addr:street": "Van de Woestijnestraat", "name": "Barbershop Muco", "opening_hours": "Mo-Th,Sa 09:30-19:00; Fr 09:30-20:00; Su 12:00-18:00", "phone": "+31 6 45519689", "shop": "hairdresser", "source": "BAG", "source:date": "2014-02-11"}}, {"type": "node", "id": 919678030, "lat": 51.8774768, "lon": 4.5185121, "tags": {"addr:city": "Rotterdam", "addr:housenumber": "37", "addr:postcode": "3076CC", "addr:street": "Bollandstraat", "name": "Texsana Textiel Reiniging", "phone": "+31 10 432 3211", "shop": "dry_cleaning"}}, {"type": "node", "id": 919678032, "lat": 51.8780929, "lon": 4.5173428, "tags": {"addr:city": "Rotterdam", "addr:country": "NL", "addr:housenumber": "16-18", "addr:postcode": "3076DC", "addr:street": "Bierens de Haanweg", "name": "Peter de Knecht", "shop": "jewelry"}}, {"type": "node", "id": 919678035, "lat": 51.8772382, "lon": 4.5178668, "tags": {"addr:city": "Rotterdam", "addr:country": "NL", "addr:housenumber": "403", "addr:postcode": "3076ET", "addr:street": "Spinozaweg", "name": "Opto-Ring Opticiens", "shop": "optician"}}, {"type": "node", "id": 919678040, "lat": 51.8785164, "lon": 4.5166057, "tags": {"addr:city": "Rotterdam", "addr:housenumber": "68", "addr:postcode": "3076DT", "addr:street": "Schopenhauerweg", "name": "Vredenburg Plastics", "shop": "trade"}}, {"type": "node", "id": 928525000, "lat": 51.9405385, "lon": 4.5491651, "tags": {"addr:city": "Rotterdam", "addr:housenumber": "12", "addr:postcode": "3067HP", "addr:street": "Samuel Esmeijerplein", "female": "yes", "female:signed": "no", "male": "yes", "male:signed": "no", "name": "Kapsalon Wahid", "opening_hours": "Mo-Fr 09:00-18:00; Sa 09:00-17:00; Su 12:00-17:00", "phone": "+31 10 795 1895", "shop": "hairdresser", "source": "BAG", "source:date": "2014-03-24", "website": "https://www.kapsalonwahid.nl/"}}, {"type": "node", "id": 928525002, "lat": 51.9402444, "lon": 4.5487898, "tags": {"addr:city": "Rotterdam", "addr:housenumber": "21", "addr:postcode": "3067AP", "addr:street": "Samuel Esmeijerplein", "brand": "Jumbo", "brand:wikidata": "Q2262314", "brand:wikipedia": "nl:Jumbo Supermarkten", "check_date": "2024-02-01", "name": "Jumbo", "opening_hours": "Mo-Sa 08:00-21:00; Su 10:00-21:00", "operator": "Jumbo", "phone": "+31 10 289 2160", "shop": "supermarket", "source": "datadigger sep 2014 eigen waarneming", "website": "http://www.jumbosupermarkten.nl/Alle-Jumbo-Winkels/Winkels/?storeid=103087", "wheelchair": "yes"}}, {"type": "node", "id": 928525003, "lat": 51.9414794, "lon": 4.5485728, "tags": {"addr:city": "Rotterdam", "addr:country": "NL", "addr:housenumber": "20", "addr:postcode": "3067AM", "addr:street": "Jan Kwakplaats", "branch": "Rotterdam-Lage Land", "brand": "HEMA", "brand:website": "https://www.hema.nl", "brand:wikidata": "Q903805", "brand:wikipedia": "nl:HEMA", "name": "HEMA", "opening_hours": "Mo-Fr 09:00-17:30; Sa 09:00-17:00; Su off", "phone": "+31 10 220 5945", "ref": "252", "shop": "department_store", "website": "https://winkels.hema.nl/nl/rotterdam/hema-rotterdam-lage-land"}}, {"type": "node", "id": 1004007982, "lat": 51.9350405, "lon": 4.464708, "tags": {"name": "Minimarkt Het Hoekje", "shop": "convenience"}}, {"type": "node", "id": 1004007990, "lat": 51.934109, "lon": 4.4654751, "tags": {"name": "Gatenkaas & Zo", "shop": "cheese", "wikimedia_commons": "File:Gatenkaas & Zo cheese shop during nautical twilight (DSC 3252).jpg"}}, {"type": "node", "id": 1007991709, "lat": 51.923411, "lon": 4.495079, "tags": {"branch": "Hoogstraat", "brand": "Kinki Kappers", "brand:wikidata": "Q124152910", "female": "yes", "male": "yes", "name": "Kinki Kappers", "shop": "hairdresser"}}, {"type": "node", "id": 1061238111, "lat": 51.9411699, "lon": 4.5479062, "tags": {"addr:city": "Rotterdam", "addr:housenumber": "38", "addr:postcode": "3067AK", "addr:street": "Marinus Bolkplein", "branch": "Rotterdam Het Lage Land", "brand": "Bakker Ammerlaan", "brand:website": "https://www.bakkerammerlaan.nl", "brand:wikidata": "Q121790350", "email": "info@bakkerammerlaan.nl", "name": "Bakker Ammerlaan", "opening_hours": "Mo-Fr 08:30-17:30; Sa 08:00-17:00; Su off", "phone": "+31 10 455 7348", "shop": "bakery", "source": "BAG", "source:date": "2014-03-24", "website": "https://www.bakkerammerlaan.nl/winkels/winkels-in-rotterdam/lage-land/", "wheelchair": "yes"}}, {"type": "node", "id": 1062222066, "lat": 51.9817701, "lon": 4.581782}, {"type": "node", "id": 1102781017, "lat": 51.93318, "lon": 4.4632725, "tags": {"addr:housename": "Treubstraat", "addr:housenumber": "9", "addr:street": "Treubstraat", "addr:unit": "b", "cuisine": "dutch", "name": "Ids Bakkerij", "shop": "bakery"}}, {"type": "node", "id": 1118786501, "lat": 51.9121763, "lon": 4.4663916, "tags": {"addr:street": "Burgemeester s'Jacobplein", "amenity": "fast_food", "brand": "BackWerk", "brand:wikidata": "Q798298", "cuisine": "sandwich", "layer": "-1", "level": "-1", "name": "Backwerk", "shop": "bakery"}}, {"type": "node", "id": 1118787499, "lat": 51.9121027, "lon": 4.4658608, "tags": {"addr:street": "Burgemeester s'Jacobplein", "layer": "-1", "level": "-1", "name": "Totaal Gemak", "shop": "tobacco"}}, {"type": "node", "id": 1118801627, "lat": 51.9155703, "lon": 4.4662353, "tags": {"addr:city": "Rotterdam", "addr:housenumber": "127", "addr:street": "Nieuwe Binnenweg", "check_date:opening_hours": "2024-11-20", "cuisine": "coffee_shop", "indoor_seating": "yes", "name": "Vlaamsch Broodhuys", "opening_hours": "Mo-Su 08:00-17:00", "outdoor_seating": "yes", "payment:cash": "no", "shop": "bakery", "website": "https://www.vlaamschbroodhuys.nl"}}, {"type": "node", "id": 1118805599, "lat": 51.9157235, "lon": 4.4677785, "tags": {"addr:city": "Rotterdam", "addr:housenumber": "92", "addr:postcode": "3015BD", "addr:street": "Nieuwe Binnenweg", "check_date": "2025-09-29", "email": "info@odilehemmen.nl", "name": "Odile Hemmen", "opening_hours": "Tu 09:30-18:30; We 09:30-18:30; Th 09:30-18:30; Fr 09:30-19:00; Sa 09:30-18:00", "phone": "+31 10 436 4131", "shop": "alcohol", "source": "BAG", "source:date": "2013-11-26", "website": "https://www.odilehemmen.nl"}}, {"type": "node", "id": 1122004430, "lat": 51.912194, "lon": 4.4370994, "tags": {"addr:city": "Rotterdam", "addr:housenumber": "219A", "addr:postcode": "3026AN", "addr:street": "Schiedamseweg", "name": "BG Almeyda", "shop": "convenience", "source": "BAG", "source:date": "2014-03-24"}}, {"type": "node", "id": 1132082909, "lat": 51.9112209, "lon": 4.4390386, "tags": {"addr:city": "Rotterdam", "addr:housenumber": "204", "addr:postcode": "3025AM", "addr:street": "Schiedamseweg", "branch": "Rotterdam Schiedamseweg", "brand": "Dirk", "brand:website": "https://www.dirk.nl", "brand:wikidata": "Q17502722", "brand:wikipedia": "nl:Dirk (supermarkt)", "name": "Dirk", "old_name": "Dirk van den Broek", "opening_hours": "Mo-Sa 07:00-22:00; Su 09:00-22:00", "phone": "+31 88 313 4675", "shop": "supermarket", "website": "https://www.dirk.nl/winkels/rotterdam/schiedamseweg/88"}}, {"type": "node", "id": 1135195826, "lat": 51.9103007, "lon": 4.444697, "tags": {"addr:city": "Rotterdam", "addr:housenumber": "77", "addr:street": "Schiedamseweg", "name": "ADO", "shop": "bicycle", "url": "https://www.adobike.nl"}}, {"type": "node", "id": 1135732335, "lat": 51.911525, "lon": 4.443307, "tags": {"addr:city": "Rotterdam", "addr:housenumber": "90a", "addr:street": "Van Duylstraat", "name": "Oranje", "phone": "+31 10 477 1114", "shop": "car_repair"}}, {"type": "node", "id": 1135733084, "lat": 51.9110461, "lon": 4.4430063, "tags": {"addr:city": "Rotterdam", "addr:housenumber": "92", "addr:postcode": "3026SM", "addr:street": "Van Duylstraat", "name": "Petlas", "phone": "+31 10 477 3842", "shop": "car_parts", "source": "BAG", "source:date": "2014-03-24"}}, {"type": "node", "id": 1140905799, "lat": 51.907584, "lon": 4.46077, "tags": {"addr:city": "Rotterdam", "addr:housenumber": "49", "addr:street": "Willem Buytewechstraat", "name": "Sahan supermarkt", "shop": "supermarket"}}, {"type": "node", "id": 1143440339, "lat": 51.905869, "lon": 4.443964, "tags": {"addr:city": "Rotterdam", "addr:housenumber": "23", "addr:street": "Hudsonstraat", "name": "Vierhaven", "phone": "+31 10 478 0172", "shop": "car_repair"}}, {"type": "node", "id": 1143989786, "lat": 51.9058475, "lon": 4.4449609, "tags": {"addr:city": "Rotterdam", "addr:housenumber": "2", "addr:street": "Hudsonplein", "name": "Car Center Plus", "shop": "car_repair"}}, {"type": "node", "id": 1143998327, "lat": 51.90731, "lon": 4.447088, "tags": {"addr:city": "Rotterdam", "addr:housenumber": "95", "addr:street": "Schans", "name": "Schans", "shop": "car_repair"}}, {"type": "node", "id": 1207493451, "lat": 51.933159, "lon": 4.4808838, "tags": {"addr:city": "Rotterdam", "addr:housenumber": "130A", "addr:postcode": "3035GX", "addr:street": "1e Pijnackerstraat", "name": "Boekhandel \"Bonst\"", "shop": "books"}}, {"type": "node", "id": 1232853053, "lat": 51.9169704, "lon": 4.4719474, "tags": {"addr:city": "Rotterdam", "addr:housenumber": "13", "addr:postcode": "3014GA", "addr:street": "Nieuwe Binnenweg", "email": "rotterdam@platomania.nl", "name": "Plato", "opening_hours": "Mo 12:00-18:00; Tu-Th 10:00-18:00; Fr 10:00-21:00; Sa 10:00-18:00; Su 12:00-18:00", "phone": "+31 10 313 0532", "shop": "music", "source": "BAG", "source:date": "2013-11-26", "start_date": "2025-02-28", "website": "https://www.platomania.nl/store/id/93/plato-rotterdam"}}, {"type": "node", "id": 1324222530, "lat": 51.9277237, "lon": 4.4383817, "tags": {"addr:city": "Rotterdam", "addr:housenumber": "46", "addr:postcode": "3041JA", "addr:street": "Abraham van Stolkweg", "branch": "Rotterdam Kleinpolder", "brand": "Kwantum", "brand:website": "https://www.kwantum.nl", "brand:wikidata": "Q2262591", "name": "Kwantum", "opening_hours": "Mo 11:00-18:00; Tu-Fr 10:00-18:00; Sa 10:00-17:00", "phone": "+31 10 2622242", "shop": "furniture", "source": "BAG", "source:date": "2014-03-24", "website": "https://www.kwantum.nl/winkels/rotterdam/a-van-stolkweg-46"}}, {"type": "node", "id": 1345139809, "lat": 51.9344449, "lon": 4.4636668, "tags": {"name": "Haarliefde", "opening_hours": "Mo 13:00-21:00; We 13:00-21:00; Th 12:00-21:00; Fr 10:00-21:00; Sa 10:00-15:00", "shop": "hairdresser", "unisex": "yes"}}, {"type": "node", "id": 1354611321, "lat": 51.926142, "lon": 4.486406, "tags": {"addr:city": "Rotterdam", "addr:housenumber": "91", "addr:postcode": "3031AP", "addr:street": "Jonker Fransstraat", "alt_name": "Trek Bicycle", "branch": "Rotterdam", "brand": "Trek", "brand:website": "https://www.trekbikes.com", "brand:wikidata": "Q1067617", "check_date": "2026-04-04", "name": "Trek", "opening_hours": "Mo-Fr 09:30-18:00; Sa 09:00-17:00", "phone": "+31 10 411 0323", "shop": "bicycle", "website": "https://www.trekbikes.com/nl/nl_NL/retail/rotterdam/"}}, {"type": "node", "id": 1354722079, "lat": 51.9301915, "lon": 4.5584176, "tags": {"addr:city": "Rotterdam", "addr:housenumber": "201", "addr:postcode": "3065KA", "addr:street": "Jacques Dutilhweg", "contact:email": "rotterdam@boomtweewielers.nl", "contact:phone": "+31 10 447 01 10", "name": "Bike Totaal Boom Rotterdam", "opening_hours": "Tu-Fr 09:00-17:30; Sa 09:00-17:00", "shop": "bicycle", "url": "https://www.biketotaal.nl/fietsenwinkel/bike-totaal-boom-rotterdam"}}, {"type": "node", "id": 1358046473, "lat": 51.9254826, "lon": 4.4628517, "tags": {"name": "Garage Speyk", "shop": "car_repair"}}, {"type": "node", "id": 1394207849, "lat": 51.9319162, "lon": 4.4631131, "tags": {"addr:city": "Rotterdam", "addr:housenumber": "134", "addr:postcode": "3038EA", "addr:street": "Stadhoudersplein", "brand": "Zeeman", "brand:website": "https://www.zeeman.com", "brand:wikidata": "Q184399", "brand:wikipedia": "nl:Zeeman (winkel)", "name": "Zeeman", "phone": "+31 88 0070638", "shop": "clothes", "website": "https://www.zeeman.com/nl-nl/winkels/1138-rotterdam-stadhoudersplein"}}, {"type": "node", "id": 1394207862, "lat": 51.9318847, "lon": 4.4631533, "tags": {"shop": "florist"}}, {"type": "node", "id": 1421692718, "lat": 51.9303488, "lon": 4.558589, "tags": {"addr:city": "Rotterdam", "addr:housenumber": "193", "addr:postcode": "3065KA", "addr:street": "Jacques Dutilhweg", "brand": "Lidl", "brand:website": "https://www.lidl.nl/", "brand:wikidata": "Q151954", "brand:wikipedia": "nl:Lidl", "name": "Lidl", "opening_hours": "Mo-Sa 08:00-21:00; Su 09:00-20:00", "operator": "Lidl Nederland GmbH", "shop": "supermarket", "source": "BAG", "source:date": "2014-03-24", "website": "https://www.lidl.nl/s/nl-NL/filialen/rotterdam/jacques-dutilhweg-193/"}}, {"type": "node", "id": 1421692719, "lat": 51.9302865, "lon": 4.5586154, "tags": {"addr:city": "Rotterdam", "addr:housenumber": "197", "addr:postcode": "3065KA", "addr:street": "Jacques Dutilhweg", "name": "Take C'Hair Rotterdam", "shop": "hairdresser", "source": "BAG", "source:date": "2014-03-24", "website": "https://www.take-chair.nl/www/salons/rotterdam.html"}}, {"type": "node", "id": 1421692722, "lat": 51.9410603, "lon": 4.5503171, "tags": {"action:id": "5611", "addr:city": "Rotterdam", "addr:country": "NL", "addr:housenumber": "235", "addr:postcode": "3067CB", "addr:street": "Berlagestraat", "brand": "Action", "brand:wikidata": "Q2634111", "brand:wikipedia": "nl:Action (winkel)", "check_date": "2026-05-02", "name": "Action", "opening_hours": "Mo-Sa,Sa 09:00-18:00; Fr 09:00-21:00", "operator": "Action", "shop": "variety_store", "source": "BAG", "source:date": "2014-03-24", "website": "https://www.action.com/nl-nl/winkels/rotterdam-berlagestraat/", "wheelchair": "yes"}}, {"type": "node", "id": 1430144140, "lat": 51.9094009, "lon": 4.4451745, "tags": {"addr:city": "Rotterdam", "addr:housenumber": "12B", "addr:street": "Rosier Faassenstraat", "name": "Boekhandel Delfshaven", "opening_hours": "Mo 12:00-17:00; Tu-Fr 11:30-17:00; Sa 09:30-16:00", "phone": "+31 10 476 7879", "shop": "books", "website": "http://www.boekhandeldelfshaven.nl"}}, {"type": "node", "id": 1436707511, "lat": 51.9189493, "lon": 4.476013, "tags": {"addr:city": "Rotterdam", "addr:housenumber": "354", "addr:postcode": "3012GR", "addr:street": "Karel Doormanstraat", "email": "shop.rotterdam@iittala.com", "fax": "+31 10 240 9455", "name": "Iittala outlet", "opening_hours": "Mo closed; Tu-Fr 10:00-17:30; Sa 10:00-17:00; Su 12:00-17:00", "operator": "Iittala", "phone": "+31 10 240 0215", "shop": "kitchen", "source": "BAG", "source:date": "2013-11-26", "website": "https://www.iittala.com"}}, {"type": "node", "id": 1437764452, "lat": 51.9536451, "lon": 4.5215587, "tags": {"name": "Hordijk Tweewielers", "shop": "bicycle", "url": "www.cyclecentregroup.nl"}}, {"type": "node", "id": 1437764456, "lat": 51.9468188, "lon": 4.5566159, "tags": {"addr:city": "Rotterdam", "addr:housenumber": "4", "addr:postcode": "3067JV", "addr:street": "Kreeftstraat", "name": "Mukistore.nl", "opening_hours": "Mo-Th 10:00-18:00; Fr 10:00-21:00; Sa 10:00-18:00; Su 11:00-18:00", "shop": "clothes", "source": "BAG", "source:date": "2014-03-24", "website": "https://mukistore.com"}}, {"type": "node", "id": 1439685259, "lat": 51.8819187, "lon": 4.5043916, "tags": {"addr:city": "Rotterdam", "addr:housenumber": "641", "addr:postcode": "3076BC", "addr:street": "Dordtsestraatweg", "name": "Berkenpeis tweewielers", "phone": "+31 10 419 1945", "shop": "bicycle", "url": "http://www.berkenpeis.nl"}}, {"type": "node", "id": 1439685263, "lat": 51.9221896, "lon": 4.4967245, "tags": {"check_date": "2025-10-01", "name": "Mega Bike", "shop": "bicycle", "url": "https://www.megabikeonline.nl", "wheelchair": "limited"}}, {"type": "node", "id": 1444128208, "lat": 51.9450216, "lon": 4.4825542, "tags": {"name": "Salt & Pepper", "shop": "hairdresser", "url": "www.saltenpepper.nl"}}, {"type": "node", "id": 1445235242, "lat": 51.9246994, "lon": 4.4206758, "tags": {"addr:city": "Rotterdam", "addr:housenumber": "116", "addr:postcode": "3044BB", "addr:street": "Schuttevaerweg", "brand": "Porsche", "brand:wikidata": "Q40993", "name": "Porsche Centrum Rotterdam", "phone": "+31 88 911 9911", "shop": "car", "url": "http://vandijkmercedes.nl/"}}, {"type": "node", "id": 1445235243, "lat": 51.9305769, "lon": 4.4184681, "tags": {"brand": "Euromaster", "brand:wikidata": "Q3060668", "name": "Euromaster", "shop": "car_repair"}}, {"type": "node", "id": 1445235246, "lat": 51.9249053, "lon": 4.4869722, "tags": {"addr:city": "Rotterdam", "addr:housenumber": "233A", "addr:postcode": "3031EL", "addr:street": "Goudsesingel", "check_date": "2025-03-18", "name": "Malik Tweewielers", "shop": "bicycle", "source": "BAG", "source:date": "2014-02-11"}}, {"type": "node", "id": 1445235247, "lat": 51.9345712, "lon": 4.4667073, "tags": {"name": "Quick Rijwiel Service", "shop": "bicycle", "url": "www.quick-rijwiel-service.nl"}}, {"type": "node", "id": 1445235248, "lat": 51.9330161, "lon": 4.4807781, "tags": {"name": "Rat Bikes", "shop": "bicycle", "url": "www.rat-bikes.com"}}, {"type": "node", "id": 1445235250, "lat": 51.9455231, "lon": 4.4750168, "tags": {"name": "Tweewielercentrum Kleiweg", "shop": "bicycle", "url": "www.kleiwegtweewielers.nl"}}, {"type": "node", "id": 1446537704, "lat": 51.938845, "lon": 4.4798268, "tags": {"name": "Pro Fietsen", "shop": "bicycle", "url": "www.profietsen.nl"}}, {"type": "node", "id": 1446537705, "lat": 51.8888473, "lon": 4.4790034, "tags": {"name": "VermeulenTweewieler", "shop": "bicycle", "url": "https://www.vermeulentweewieler.nl"}}, {"type": "node", "id": 1448467672, "lat": 51.9319009, "lon": 4.4815191, "tags": {"fixme": "Website verwijst door naar website van Superfietsen, die niet op dit adres zit. Bestaat Ado Bike nog?", "name": "Ado Bike", "shop": "bicycle", "website": "https://www.adobike.nl"}}, {"type": "node", "id": 1448467673, "lat": 51.8911394, "lon": 4.5521412, "tags": {"addr:city": "Rotterdam", "addr:housenumber": "50", "addr:postcode": "3078GX", "addr:street": "Prinsenplein", "brand": "Dirk", "brand:wikidata": "Q17502722", "brand:wikipedia": "en:Dirk (supermarket)", "check_date": "2025-08-09", "name": "Dirk", "old_name": "Dirk van den Broek", "shop": "supermarket"}}, {"type": "node", "id": 1448467674, "lat": 51.8741063, "lon": 4.4844744, "tags": {"addr:city": "Rotterdam", "addr:housenumber": "312-314", "addr:postcode": "3085CH", "addr:street": "Meyenhage", "name": "NAA Grace\u2019s Hairstyling & Beautycenter / SlenderStudio", "opening_hours": "Tu-Sa 09:30-18:00", "phone": "+31 10 481 0835", "phone:mobile": "+31687250024", "shop": "beauty", "url": "https://gracehairstyling-beauty-slenderstudio.nl/"}}, {"type": "node", "id": 1448467687, "lat": 51.935623, "lon": 4.4959682, "tags": {"name": "van Dool", "shop": "bicycle"}}, {"type": "node", "id": 1449093988, "lat": 51.9295848, "lon": 4.4824157, "tags": {"check_date": "2025-04-25", "name": "Bikers Best", "shop": "bicycle", "url": "https://www.bikersbestrotterdam.nl"}}, {"type": "node", "id": 1449093989, "lat": 51.9296453, "lon": 4.4684176, "tags": {"name": "Frensch Tweewielers", "shop": "bicycle", "url": "www.frenschtweewielers.nl"}}, {"type": "node", "id": 1449093994, "lat": 51.8969457, "lon": 4.508463, "tags": {"name": "rijwielhandel zuid", "service:bicycle:second_hand": "yes", "shop": "bicycle"}}, {"type": "node", "id": 1449884968, "lat": 51.8896544, "lon": 4.5170491, "tags": {"name": "Anton's Rijwielcorner", "shop": "bicycle"}}, {"type": "node", "id": 1449884978, "lat": 51.9212677, "lon": 4.5067182, "tags": {"addr:city": "Rotterdam", "addr:housenumber": "164A", "addr:postcode": "3063BL", "addr:street": "Oostzeedijk", "check_date": "2025-10-22", "email": "philipsentweewielers@hotmail.com", "name": "Philipsen Tweewielers", "opening_hours": "Tu-Fr 10:00-17:00; Sa 10:00-16:00", "phone": "+31 10 414 3222", "shop": "bicycle", "source": "BAG", "source:date": "2014-03-24", "website": "https://www.philipsentweewielers.nl"}}, {"type": "node", "id": 1453638623, "lat": 51.9334699, "lon": 4.4691351, "tags": {"addr:city": "Rotterdam", "addr:housenumber": "112", "addr:postcode": "3038JC", "addr:street": "Insulindestraat", "name": "Tafel-design.nl", "shop": "furniture", "source": "BAG", "source:date": "2014-02-11", "website": "https://tafeldesign.nl/"}}, {"type": "node", "id": 1464239583, "lat": 51.904707, "lon": 4.502354, "tags": {"check_date": "2025-10-05", "name": "Ched", "opening_hours": "Mo-Fr 09:00-20:00; Sa 08:00-16:00", "shop": "hairdresser", "source": "local_knowledge"}}, {"type": "node", "id": 1464246598, "lat": 51.9039126, "lon": 4.5042101, "tags": {"brand": "HEMA", "brand:wikidata": "Q903805", "brand:wikipedia": "nl:HEMA", "name": "HEMA", "opening_hours": "Su 12:00-17:00; Mo-Th,Sa 09:00-18:00; Fr 09:00-20:00", "shop": "department_store", "source": "local_knowledge"}}, {"type": "node", "id": 1464254613, "lat": 51.9052829, "lon": 4.5092312, "tags": {"shop": "kiosk", "source": "local_knowledge"}}, {"type": "node", "id": 1465771741, "lat": 51.9234297, "lon": 4.4697654, "tags": {"amenity": "bicycle_rental", "bicycle_rental": "shop", "name": "Fietsenstalling Rotterdam Centraal", "shop": "rental"}}, {"type": "node", "id": 1478735151, "lat": 51.917584, "lon": 4.432352, "tags": {"addr:city": "Rotterdam", "addr:housenumber": "28", "addr:street": "Van Lennepstraat", "name": "Buurtwinkel Spangen", "shop": "convenience"}}, {"type": "node", "id": 1478737205, "lat": 51.917625, "lon": 4.431824, "tags": {"addr:city": "Rotterdam", "addr:housenumber": "49", "addr:street": "Van Lennepstraat", "name": "Tabakshop Spangen", "shop": "tobacco"}}, {"type": "node", "id": 1479172838, "lat": 51.916881, "lon": 4.423866, "tags": {"addr:city": "Rotterdam", "addr:housenumber": "154", "addr:street": "Franselaan", "name": "Minimarket Franselaan", "shop": "convenience"}}, {"type": "node", "id": 1479192507, "lat": 51.916819, "lon": 4.442277, "tags": {"addr:city": "Rotterdam", "addr:housenumber": "126", "addr:street": "Mathenesserdijk", "name": "Noumidia", "shop": "convenience"}}, {"type": "node", "id": 1482501803, "lat": 51.9058866, "lon": 4.4425982}, {"type": "node", "id": 1482501817, "lat": 51.9060638, "lon": 4.4420756}, {"type": "node", "id": 1482501820, "lat": 51.9061414, "lon": 4.4422093}, {"type": "node", "id": 1482501823, "lat": 51.906178, "lon": 4.4419006}, {"type": "node", "id": 1482501829, "lat": 51.9064488, "lon": 4.440938}, {"type": "node", "id": 1482501837, "lat": 51.9102178, "lon": 4.4351954}, {"type": "node", "id": 1482501863, "lat": 51.9108293, "lon": 4.4348132}, {"type": "node", "id": 1482501865, "lat": 51.9109499, "lon": 4.4346293}, {"type": "node", "id": 1482501867, "lat": 51.9110884, "lon": 4.4348675}, {"type": "node", "id": 1482519194, "lat": 51.9095285, "lon": 4.4362514, "tags": {"addr:city": "Rotterdam", "addr:housenumber": "147", "addr:postcode": "3029BB", "addr:street": "Vierhavensstraat", "brand": "Albert Heijn", "brand:wikidata": "Q1653985", "brand:wikipedia": "nl:Albert Heijn (supermarkt)", "name": "Albert Heijn", "opening_hours": "Mo-Sa 08:00-22:00; Su 09:00-22:00", "phone": "+31 10 425 3081", "shop": "supermarket", "source": "BAG;survey", "source:date": "2014-03-24", "website": "https://www.ah.nl/winkel/1654"}}, {"type": "node", "id": 1482519195, "lat": 51.9103286, "lon": 4.4351552, "tags": {"addr:city": "Rotterdam", "addr:housenumber": "173", "addr:postcode": "3029BB", "addr:street": "Vierhavensstraat", "branch": "Rotterdam Bigshops", "brand": "Beter Bed", "brand:website": "https://www.beterbed.nl", "brand:wikidata": "Q831076", "brand:wikipedia": "nl:Beter Bed", "name": "Beter Bed", "phone": "+31 10 223 14 73", "shop": "bed", "source": "BAG", "source:date": "2021-12-22", "website": "https://www.beterbed.nl/Winkels/zuid-holland/Rotterdam-Bigshops"}}, {"type": "node", "id": 1482519196, "lat": 51.9093454, "lon": 4.4365322, "tags": {"addr:city": "Rotterdam", "addr:housenumber": "139", "addr:postcode": "3029BB", "addr:street": "Vierhavensstraat", "branch": "Rotterdam", "brand": "Fietsvoordeelshop.nl", "brand:website": "https://www.fietsvoordeelshop.nl/", "brand:wikidata": "Q132174961", "name": "Fietsvoordeelshop.nl", "opening_hours": "Tu-Fr 09:30-18:00; Sa 09:00-17:00; Mo,Su off", "phone": "+31 10 303 12 47", "shop": "bicycle", "source": "BAG", "source:date": "2014-03-24", "website": "https://www.fietsvoordeelshop.nl/winkels/rotterdam"}}, {"type": "node", "id": 1482519198, "lat": 51.9101472, "lon": 4.4353065, "tags": {"addr:city": "Rotterdam", "addr:housenumber": "169", "addr:postcode": "3029BB", "addr:street": "Vierhavensstraat", "branch": "Rotterdam", "brand": "HelloTV", "brand:website": "https://www.hellotv.nl", "brand:wikidata": "Q136724881", "email": "rotterdam@hellotv.nl", "name": "HelloTV", "shop": "electronics", "source": "BAG", "source:date": "2014-03-24", "website": "https://www.hellotv.nl/winkels/hellotv-rotterdam"}}, {"type": "node", "id": 1482519199, "lat": 51.9083775, "lon": 4.4380857, "tags": {"addr:city": "Rotterdam", "addr:housenumber": "105", "addr:postcode": "3029BB", "addr:street": "Vierhavensstraat", "brand": "Action", "brand:wikidata": "Q2634111", "brand:wikipedia": "nl:Action (winkel)", "name": "Action", "opening_hours": "Mo-Sa 08:30-20:00; Th,Fr 08:30-21:00; Su 10:00-18:00", "operator": "Action", "shop": "variety_store", "source": "BAG", "source:date": "2014-03-24", "website": "https://www.action.com/nl-nl/winkels/rotterdam-vierhavensstraat/"}}, {"type": "node", "id": 1482519206, "lat": 51.9072853, "lon": 4.4396725, "tags": {"addr:city": "Rotterdam", "addr:housenumber": "75", "addr:postcode": "3029BB", "addr:street": "Vierhavensstraat", "brand": "JYSK", "brand:wikidata": "Q138913", "brand:wikipedia": "en:Jysk", "name": "JYSK", "shop": "furniture", "source": "BAG", "source:date": "2014-03-24"}}, {"type": "node", "id": 1482519207, "lat": 51.9088625, "lon": 4.4373322, "tags": {"addr:city": "Rotterdam", "addr:housenumber": "123", "addr:postcode": "3029BB", "addr:street": "Vierhavensstraat", "level": "0", "name": "Smyth Toys", "opening_hours": "Mo-Th,Sa 09:00-18:00, Fr 09:00-21:00, Su 11:00-18:00", "shop": "toys", "source": "BAG", "source:date": "2014-03-24", "wheelchair": "yes"}}, {"type": "node", "id": 1482519209, "lat": 51.9090756, "lon": 4.4371325, "tags": {"addr:city": "Rotterdam", "addr:housenumber": "131", "addr:street": "Vierhavensstraat", "brand": "Xenos", "brand:website": "https://www.xenos.nl", "brand:wikidata": "Q16547960", "brand:wikipedia": "nl:Xenos", "name": "Xenos", "shop": "houseware"}}, {"type": "node", "id": 1482519215, "lat": 51.9075418, "lon": 4.4393607}, {"type": "node", "id": 1482519216, "lat": 51.9074549, "lon": 4.4394047}, {"type": "node", "id": 1482519217, "lat": 51.907566, "lon": 4.4392929}, {"type": "node", "id": 1482519218, "lat": 51.907547, "lon": 4.439265}, {"type": "node", "id": 1482519220, "lat": 51.9075749, "lon": 4.4393061}, {"type": "node", "id": 1496425959, "lat": 51.916459, "lon": 4.446544, "tags": {"addr:city": "Rotterdam", "addr:housenumber": "118", "addr:street": "Vierambachtsstraat", "name": "C. v.d. Berg", "shop": "bicycle"}}, {"type": "node", "id": 1498666128, "lat": 51.918712, "lon": 4.462296, "tags": {"addr:city": "Rotterdam", "addr:housenumber": "82", "addr:street": "1e Middellandstraat", "name": "Yankee", "shop": "tobacco"}}, {"type": "node", "id": 1498670709, "lat": 51.918476, "lon": 4.460738, "tags": {"addr:city": "Rotterdam", "addr:housenumber": "108", "addr:street": "1e Middellandstraat", "name": "Cigo", "shop": "tobacco"}}, {"type": "node", "id": 1498820644, "lat": 51.912685, "lon": 4.458041, "tags": {"addr:city": "Rotterdam", "addr:housenumber": "302", "addr:street": "Nieuwe Binnenweg", "name": "ChezMoi", "shop": "deli"}}, {"type": "node", "id": 1498833526, "lat": 51.913201, "lon": 4.460878, "tags": {"addr:city": "Rotterdam", "addr:housenumber": "240", "addr:street": "Nieuwe Binnenweg", "brand": "Ekoplaza", "brand:wikidata": "Q47017915", "brand:wikipedia": "nl:Ekoplaza", "name": "Ekoplaza", "opening_hours": "Mo-Sa 08:30-19:00; Su 11:00-19:00", "organic": "only", "shop": "supermarket", "wheelchair": "yes"}}, {"type": "node", "id": 1501882455, "lat": 51.8837429, "lon": 4.4697669}, {"type": "node", "id": 1507755403, "lat": 51.9685559, "lon": 4.4636844}, {"type": "node", "id": 1507755405, "lat": 51.9687137, "lon": 4.4638914}, {"type": "node", "id": 1507755411, "lat": 51.9684766, "lon": 4.4644517}, {"type": "node", "id": 1507755413, "lat": 51.9684039, "lon": 4.4644771}, {"type": "node", "id": 1538640699, "lat": 51.9619485, "lon": 4.4941518, "tags": {"name": "C.v d Welle", "shop": "bicycle", "url": "www.ceesvanderwelle.nl"}}, {"type": "node", "id": 1538640717, "lat": 51.8869284, "lon": 4.4909288, "tags": {"brand": "HEMA", "brand:wikidata": "Q903805", "brand:wikipedia": "nl:HEMA", "emergency": "defibrillator", "fixme": "2 features, one OSM element. See: https://wiki.openstreetmap.org/wiki/One_feature,_one_OSM_element", "level": "2", "name": "HEMA", "shop": "department_store", "website": "https://winkels.hema.nl/nl/rotterdam/hema-rotterdam-zuidplein", "wheelchair": "yes"}}, {"type": "node", "id": 1538640718, "lat": 51.9339195, "lon": 4.4619885, "tags": {"addr:city": "Rotterdam", "addr:housenumber": "114", "addr:postcode": "3038PR", "addr:street": "Abraham Kuyperlaan", "name": "Kuijper Tweewielers", "shop": "bicycle", "source": "BAG", "source:date": "2014-03-24"}}, {"type": "node", "id": 1538640732, "lat": 51.8894614, "lon": 4.5029624, "tags": {"name": "Wielerstudio", "shop": "bicycle", "url": "www.wielerstudio.nl"}}, {"type": "node", "id": 1589605785, "lat": 51.8698849, "lon": 4.533162, "tags": {"addr:city": "Rotterdam", "addr:housenumber": "157-159", "addr:postcode": "3076JN", "addr:street": "Pascalweg", "contact:website": "https://www.bax-shop.nl/muziekwinkel-rotterdam", "name": "Bax Music Rotterdam", "shop": "musical_instrument"}}, {"type": "node", "id": 1602649933, "lat": 51.9093942, "lon": 4.4475931, "tags": {"addr:city": "Rotterdam", "addr:housenumber": "8", "addr:postcode": "3025VJ", "addr:street": "Schans", "branch": "Rotterdam Delfshaven", "brand": "Sahan", "brand:wikidata": "Q134894963", "name": "Sahan", "opening_hours": "Mo-Sa 08:00-19:30; Su 12:00-18:00", "phone": "+31 10 425 88 88", "shop": "convenience", "source": "BAG", "source:date": "2014-03-24", "website": "https://sahan.nl"}}, {"type": "node", "id": 1602649955, "lat": 51.909881, "lon": 4.4450513, "tags": {"addr:city": "Rotterdam", "addr:country": "NL", "addr:housenumber": "62", "addr:postcode": "3025AD", "addr:street": "Schiedamseweg", "branch": "Rotterdam Schiedamseweg", "brand": "Jumbo", "brand:website": "https://www.jumbo.com", "brand:wikidata": "Q2262314", "brand:wikipedia": "nl:Jumbo Supermarkten", "name": "Jumbo", "note": "Winkelgegevens van website Jumbo mogen in OSM onder ODbL gebruikt worden (toestemming ontvangen op 15-6-2012)", "opening_hours": "Mo-Su 07:00-22:00", "organic": "yes", "payment:cards": "yes", "payment:cash": "yes", "payment:qr_code": "no", "phone": "+31 10 244 3160", "ref": "3519", "shop": "supermarket", "source": "BAG", "source:date": "2014-03-24", "website": "https://www.jumbo.com/winkel/rotterdam/jumbo-rotterdam-schiedamseweg"}}, {"type": "node", "id": 1602649977, "lat": 51.9101432, "lon": 4.4462016, "tags": {"name": "Nachtwinkel", "shop": "convenience"}}, {"type": "node", "id": 1610600746, "lat": 51.9118466, "lon": 4.4532454, "tags": {"addr:city": "Rotterdam", "addr:housenumber": "363", "addr:postcode": "3023EJ", "addr:street": "Nieuwe Binnenweg", "name": "Out of Time", "opening_hours": "Mo-Su 10:00-22:00", "shop": "cannabis", "website": "https://www.outoftime.nl/"}}, {"type": "node", "id": 1610609312, "lat": 51.910979, "lon": 4.451636, "tags": {"addr:city": "Rotterdam", "addr:housenumber": "403", "addr:street": "Nieuwe Binnenweg", "name": "Bob Marley", "shop": "cannabis"}}, {"type": "node", "id": 1634534485, "lat": 51.8863276, "lon": 4.4883962}, {"type": "node", "id": 1634534521, "lat": 51.8864112, "lon": 4.4884488}, {"type": "node", "id": 1634534557, "lat": 51.8864434, "lon": 4.4883098}, {"type": "node", "id": 1634534633, "lat": 51.8865933, "lon": 4.4884015}, {"type": "node", "id": 1634534655, "lat": 51.8873769, "lon": 4.4890949}, {"type": "node", "id": 1634534669, "lat": 51.8873008, "lon": 4.4894232}, {"type": "node", "id": 1634534670, "lat": 51.8873045, "lon": 4.4890079}, {"type": "node", "id": 1634534671, "lat": 51.8873387, "lon": 4.4888615}, {"type": "node", "id": 1634534672, "lat": 51.8873868, "lon": 4.4890586}, {"type": "node", "id": 1635685228, "lat": 51.8899731, "lon": 4.4903604, "tags": {"brand": "Kwik Fit", "brand:wikidata": "Q958053", "brand:wikipedia": "en:Kwik Fit", "name": "Kwik Fit", "shop": "car_repair"}}, {"type": "node", "id": 1666481689, "lat": 51.9309012, "lon": 4.4583025, "tags": {"addr:city": "Rotterdam", "addr:housenumber": "100", "addr:postcode": "3039JK", "addr:street": "Statenweg", "name": "Kaaspaleis Blijdorp", "opening_hours": "Mo,Tu,Th,Fr 07:00-18:00, We 07:00-14:00, Sa 07:00-16:30", "phone": "+31 10 466 5472", "shop": "convenience", "source": "local_knowledge", "website": "https://www.taste2.nl/", "wheelchair": "yes"}}, {"type": "node", "id": 1666489077, "lat": 51.9311096, "lon": 4.4601961, "tags": {"addr:city": "Rotterdam", "addr:housenumber": "97C", "addr:postcode": "3039EC", "addr:street": "Stadhoudersweg", "name": "Magazijn Blijdorp", "phone": "+31 10 466 3180", "shop": "doityourself", "source": "BAG", "source:date": "2014-03-24", "website": "https://www.magazijnblijdorp.nl"}}, {"type": "node", "id": 1666502847, "lat": 51.9302463, "lon": 4.4593003, "tags": {"addr:city": "Rotterdam", "addr:postcode": "3039CL", "addr:street": "Stadhoudersweg", "name": "M. de Leeuw Delicatessen", "phone": "+31 10 466 6244", "shop": "convenience", "source": "local_knowledge"}}, {"type": "node", "id": 1684332118, "lat": 51.9605375, "lon": 4.469585, "tags": {"addr:city": "Rotterdam", "addr:housenumber": "113", "addr:postcode": "3053GJ", "addr:street": "Peppelweg", "brand:website": "https://www.hema.nl/", "brand:wikidata": "Q903805", "brand:wikipedia": "nl:HEMA", "name": "HEMA", "shop": "department_store", "source": "BAG", "source:date": "2014-03-24", "website": "https://winkels.hema.nl/nl/rotterdam/hema-rotterdam-schiebroek"}}, {"type": "node", "id": 1687323421, "lat": 51.9564683, "lon": 4.4667606, "tags": {"alt_name": "Tuincentrum Schiebroek", "name": "Schiebroek Plants", "opening_hours": "Sa 10:00-16:00; Mo-Fr 10:00-17:30", "shop": "florist", "wheelchair": "yes"}}, {"type": "node", "id": 1706165129, "lat": 51.8905759, "lon": 4.4641121, "tags": {"addr:city": "Rotterdam", "addr:housenumber": "2A", "addr:postcode": "3082PA", "addr:street": "Voornsestraat", "name": "De Westlandse Tuin", "shop": "greengrocer", "source": "BAG", "source:date": "2014-03-24"}}, {"type": "node", "id": 1706165150, "lat": 51.8906093, "lon": 4.4639793, "tags": {"addr:city": "Rotterdam", "addr:housenumber": "4A", "addr:postcode": "3082PA", "addr:street": "Voornsestraat", "name": "Slagerij Van Ginkel", "phone": "+31 10 429 3552", "shop": "butcher", "source": "BAG", "source:date": "2014-03-24"}}, {"type": "node", "id": 1706300861, "lat": 51.8832824, "lon": 4.4694271}, {"type": "node", "id": 1706300862, "lat": 51.8832928, "lon": 4.4691903}, {"type": "node", "id": 1706300863, "lat": 51.8835295, "lon": 4.4697277}, {"type": "node", "id": 1706300865, "lat": 51.8835447, "lon": 4.4694831}, {"type": "node", "id": 1709201934, "lat": 51.8855467, "lon": 4.5368753, "tags": {"addr:city": "Rotterdam", "addr:housenumber": "34", "addr:postcode": "3079AB", "addr:street": "Kreekplein", "email": "info@aquariuscare.nl", "name": "Aquarius huidverzorgingsinstituut", "phone": "+31 10 482 6912", "shop": "beauty", "website": "http://www.aquariuscare.nl/"}}, {"type": "node", "id": 1709201938, "lat": 51.8762437, "lon": 4.5321883, "tags": {"addr:city": "Rotterdam", "addr:housenumber": "2", "addr:postcode": "3076LZ", "addr:street": "Homerusplein", "name": "Asha Haarmode", "phone": "+31 10 497 8223", "shop": "hairdresser", "source": "BAG", "source:date": "2014-02-11"}}, {"type": "node", "id": 1709201946, "lat": 51.8856581, "lon": 4.5366803, "tags": {"addr:city": "Rotterdam", "addr:housenumber": "8", "addr:postcode": "3079AB", "addr:street": "Kreekplein", "amenity": "social_facility", "name": "Voedselcentrum Rotterdam Zuid Oost", "opening_hours": "Mo-Sa 09:30-20:00, Su 14:00-20:00", "operator": "Isaak & de Schittering", "shop": "supermarket", "social_facility": "food_bank", "source": "BAG", "source:date": "2014-02-11", "website": "https://stichtingisaakendeschittering.nl/voedselcentrum/"}}, {"type": "node", "id": 1709201949, "lat": 51.8854662, "lon": 4.5368819, "tags": {"addr:city": "Rotterdam", "addr:housenumber": "36-37", "addr:postcode": "3079AB", "addr:street": "Kreekplein", "email": "010ict@gmail.com", "name": "010 Computers", "phone": "+31 10 482 8054", "shop": "computer"}}, {"type": "node", "id": 1715921516, "lat": 51.8732733, "lon": 4.537825, "tags": {"addr:city": "Rotterdam", "addr:housenumber": "63", "addr:postcode": "3079DB", "addr:street": "Gouderakstraat", "check_date": "2024-10-20", "name": "Epplejeck Rotterdam", "phone": "+31 10 482 8255", "shop": "pet", "website": "https://www.ej.nl/winkels/19/epplejeck-rotterdam.html"}}, {"type": "node", "id": 1716900832, "lat": 51.8971027, "lon": 4.4955913, "tags": {"name": "Afzal Beauty Cosmetics", "shop": "beauty"}}, {"type": "node", "id": 1716900889, "lat": 51.8972617, "lon": 4.4962775, "tags": {"addr:city": "Rotterdam", "addr:postcode": "3073JN", "addr:street": "Putselaan", "name": "Bedco", "phone": "+31 10 226 0723", "shop": "furniture", "website": "http://bedco.nl/"}}, {"type": "node", "id": 1716901049, "lat": 51.8972857, "lon": 4.4963727, "tags": {"addr:city": "Rotterdam", "addr:housenumber": "230-234", "addr:postcode": "3073JN", "addr:street": "Putselaan", "name": "Jasmijn wonen", "shop": "furniture", "website": "http://www.jasmijnwonen.nl/"}}, {"type": "node", "id": 1716901086, "lat": 51.8971748, "lon": 4.4963208, "tags": {"addr:city": "Rotterdam", "addr:housenumber": "10a", "addr:postcode": "3073JT", "addr:street": "Sint-Andriesstraat", "name": "Juwelier Anadolu", "phone": "+31 10 486 0533", "shop": "jewelry", "website": "https://www.juwelier-anadolu.nl/"}}, {"type": "node", "id": 1716901155, "lat": 51.9020405, "lon": 4.4969545, "tags": {"addr:city": "Rotterdam", "addr:housenumber": "50A", "addr:postcode": "3072JE", "addr:street": "Hillelaan", "name": "Sexshop Helen", "shop": "erotic", "source": "BAG", "source:date": "2014-02-11"}}, {"type": "node", "id": 1716901172, "lat": 51.8970666, "lon": 4.4955631, "tags": {"addr:city": "Rotterdam", "addr:housenumber": "4A", "addr:postcode": "3073GA", "addr:street": "Dordtselaan", "name": "Star Tex Fashion", "shop": "clothes"}}, {"type": "node", "id": 1716901180, "lat": 51.8971909, "lon": 4.4959657, "tags": {"addr:city": "Rotterdam", "addr:housenumber": "240", "addr:postcode": "3073JP", "addr:street": "Putselaan", "name": "Sultan Gordijn Paleis", "shop": "furniture"}}, {"type": "node", "id": 1716994430, "lat": 51.8932765, "lon": 4.5091355, "tags": {"addr:city": "Rotterdam", "addr:housenumber": "219-221", "addr:postcode": "3073AG", "addr:street": "Groene Hilledijk", "name": "Do\u011fta\u015f exclusive", "phone": "+31 88 076 2020", "shop": "furniture", "website": "https://www.dogtas.com/"}}, {"type": "node", "id": 1716994434, "lat": 51.8964761, "lon": 4.4999607, "tags": {"addr:city": "Rotterdam", "addr:housenumber": "39A", "addr:postcode": "3073HD", "addr:street": "Putsebocht", "name": "Garage Mete", "phone": "+31 10 485 2277", "shop": "car"}}, {"type": "node", "id": 1716994446, "lat": 51.8934465, "lon": 4.5091953, "tags": {"addr:city": "Rotterdam", "addr:housenumber": "147", "addr:postcode": "3073AA", "addr:street": "Groene Hilledijk", "branch": "Rotterdam Groene Hilledijk", "brand": "MultiVlaai", "brand:website": "https://www.multivlaai.nl/", "brand:wikidata": "Q5439846", "name": "MultiVlaai", "shop": "pastry"}}, {"type": "node", "id": 1716994449, "lat": 51.8934002, "lon": 4.5091779, "tags": {"addr:city": "Rotterdam", "addr:housenumber": "149", "addr:postcode": "3073AA", "addr:street": "Groene Hilledijk", "name": "Stomerij Wasserette Easy Wash", "phone": "+31 10 226 2470", "shop": "dry_cleaning", "website": "https://www.easy-wash.nl/"}}, {"type": "node", "id": 1716994454, "lat": 51.8980666, "lon": 4.4976263, "tags": {"addr:city": "Rotterdam", "addr:housenumber": "40B", "addr:postcode": "3072BC", "addr:street": "Goede-Hoopstraat", "amenity": "money_transfer", "name": "Sunrise Belhuis & Tabakshop", "shop": "kiosk", "source": "BAG", "source:date": "2014-02-11"}}, {"type": "node", "id": 1716994470, "lat": 51.8960955, "lon": 4.4996011, "tags": {"addr:city": "Rotterdam", "addr:housenumber": "43A", "addr:postcode": "3073HD", "addr:street": "Putsebocht", "name": "Tabak-Lectuurshop Royal", "phone": "+31 10 423 3355", "shop": "kiosk"}}, {"type": "node", "id": 1743136454, "lat": 51.9277351, "lon": 4.5083811, "tags": {"addr:city": "Rotterdam", "addr:housenumber": "182A", "addr:postcode": "3061AR", "addr:street": "Oudedijk", "email": "info@sereenuitvaart.nl", "name": "Sereen Uitvaartbegeleiding", "phone": "+31 10 843 3770", "shop": "funeral_directors", "source": "BAG", "source:date": "2014-03-24", "website": "https://www.sereenuitvaart.nl"}}, {"type": "node", "id": 1743142711, "lat": 51.92754, "lon": 4.5088693, "tags": {"addr:city": "Rotterdam", "addr:housenumber": "168", "addr:postcode": "3061AR", "addr:street": "Oudedijk", "name": "Puff Store", "shop": "tobacco"}}, {"type": "node", "id": 1746673174, "lat": 51.9293049, "lon": 4.5056405, "tags": {"addr:city": "Rotterdam", "addr:housenumber": "255A", "addr:postcode": "3061AJ", "addr:street": "Oudedijk", "name": "Release laser clinic", "opening_hours": "Mo-Fr 10:00-16:00", "shop": "beauty", "website": "https://releaselaserclinic.nl"}}, {"type": "node", "id": 1746723019, "lat": 51.9248666, "lon": 4.5135845, "tags": {"addr:city": "Rotterdam", "addr:housenumber": "10", "addr:postcode": "3062KN", "addr:street": "Voorschoterlaan", "branch": "Kralingen", "brand": "SPAR city", "brand:website": "https://www.spar.nl/city/", "brand:wikidata": "Q124630664", "name": "SPAR city", "opening_hours": "Mo-Sa 07:00-21:00; Su 12:00-21:00", "operator": "SPAR", "operator:wikidata": "Q610492", "phone": "+31 10 2540411", "shop": "convenience", "website": "https://www.spar.nl/winkels/spar-city-kralingen-212/"}}, {"type": "node", "id": 1747113146, "lat": 51.8850093, "lon": 4.5126335, "tags": {"addr:city": "Rotterdam", "addr:housenumber": "202", "addr:postcode": "3075GK", "addr:street": "Groenezoom", "email": "kantoor@uljee.info", "name": "Meesterbakker Uljee", "phone": "+31 10 432 9862", "shop": "bakery", "website": "https://uljee.meesterbakker.nl/", "wheelchair": "yes"}}, {"type": "node", "id": 1747113155, "lat": 51.8844858, "lon": 4.508334, "tags": {"addr:city": "Rotterdam", "addr:housenumber": "315", "addr:postcode": "3075GG", "addr:street": "Groenezoom", "name": "DOB Fotoservice", "opening_hours": "\"hoofdzakelijk op afspraak\"", "phone": "+31 10 432 9668", "shop": "photo"}}, {"type": "node", "id": 1747113169, "lat": 51.8848989, "lon": 4.5122765, "tags": {"addr:city": "Rotterdam", "addr:housenumber": "208", "addr:postcode": "3075GK", "addr:street": "Groenezoom", "brand": "MCD", "brand:wikidata": "Q46936596", "brand:wikipedia": "nl:MCD (supermarkt)", "name": "MCD", "opening_hours": "Mo-Sa 07:00-20:00; Su 11:00-17:00", "phone": "+31 10 419 2370", "shop": "supermarket", "source": "BAG", "source:date": "2014-03-24", "website": "https://www.mcd-supermarkt.nl/winkel/mcd-rotterdam-vreewijk/", "wheelchair": "yes"}}, {"type": "node", "id": 1747113184, "lat": 51.8850387, "lon": 4.5127845, "tags": {"addr:city": "Rotterdam", "addr:housenumber": "200", "addr:postcode": "3075GK", "addr:street": "Groenezoom", "name": "JK Coiffures Jean Koppelaar", "shop": "hairdresser"}}, {"type": "node", "id": 1747113200, "lat": 51.8847629, "lon": 4.5096718, "tags": {"addr:city": "Rotterdam", "addr:housenumber": "285a", "addr:postcode": "3075GE", "addr:street": "Groenezoom", "email": "quist@euronet.nl", "name": "Quist Beeld en Geluid", "phone": "+31 10 419 1383", "shop": "electronics"}}, {"type": "node", "id": 1749062279, "lat": 51.8773415, "lon": 4.5194112, "tags": {"addr:city": "Rotterdam", "addr:country": "NL", "addr:housenumber": "293", "addr:postcode": "3076EP", "addr:street": "Spinozaweg", "baby_feeding": "no", "brand": "Jumbo", "brand:wikidata": "Q2262314", "brand:wikipedia": "nl:Jumbo Supermarkten", "name": "Jumbo Drenkelford", "opening_hours": "Mo-Sa 07:00-21:00; Su 10:00-20:00", "post_office": "post_partner", "post_office:brand": "PostNL", "post_office:parcel_from": "yes", "post_office:parcel_to": "yes", "post_office:stamps": "yes", "shop": "supermarket", "source": "BAG", "source:date": "2014-03-24", "toilets": "no", "wheelchair": "yes"}}, {"type": "node", "id": 1749695777, "lat": 51.8704873, "lon": 4.5342211, "tags": {"addr:city": "Rotterdam", "addr:housenumber": "49-59", "addr:postcode": "3076JH", "addr:street": "Kinderdijkstraat", "email": "info@deblaak-rotterdam.nl", "name": "Automobielbedrijf De Blaak Rotterdam", "phone": "+31 10 432 3555", "shop": "car", "website": "http://www.deblaak-rotterdam.nl/"}}, {"type": "node", "id": 1749695814, "lat": 51.8706847, "lon": 4.5336267, "tags": {"addr:city": "Rotterdam", "addr:housenumber": "62-65", "addr:postcode": "3076JH", "addr:street": "Kinderdijkstraat", "name": "Van Duijn Vloeren en Interieurs B.V.", "phone": "+31 10 432 1288", "shop": "furniture", "website": "http://www.vanduijn-projektinr.nl/"}}, {"type": "node", "id": 1750115046, "lat": 51.887698, "lon": 4.5114035, "tags": {"addr:city": "Rotterdam", "addr:housenumber": "1", "addr:postcode": "3075JB", "addr:street": "Brink", "name": "Duet Kapsalon", "phone": "+31 10 419 0126", "shop": "hairdresser"}}, {"type": "node", "id": 1750115059, "lat": 51.8858079, "lon": 4.5156034, "tags": {"addr:city": "Rotterdam", "addr:housenumber": "155", "addr:postcode": "3075GC", "addr:street": "Groenezoom", "male": "yes", "name": "Kapsalon M. Poot", "phone": "+31 10 419 5041", "shop": "hairdresser"}}, {"type": "node", "id": 1750115068, "lat": 51.8857017, "lon": 4.5146444, "tags": {"addr:city": "Rotterdam", "addr:housenumber": "182", "addr:postcode": "3075JN", "addr:street": "Langegeer", "name": "Kapsalon Nilli", "phone": "+31 6 13583767", "shop": "hairdresser"}}, {"type": "node", "id": 1750115075, "lat": 51.8874753, "lon": 4.5102948, "tags": {"addr:city": "Rotterdam", "addr:housenumber": "78", "addr:postcode": "3075HD", "addr:street": "Dreef", "name": "Persoonlijke Huidverzorging G. Verroen", "phone": "+31 10 419 2410", "shop": "beauty"}}, {"type": "node", "id": 1753060012, "lat": 51.8740539, "lon": 4.4701994, "tags": {"name": "Action Rotterdam 3", "opening_hours": "Mo-Th 09:00-18:00; Fr 09:00-20:00; Sa 09:00-17:00", "operator": "Action", "shop": "variety_store", "website": "https://www.action.nl"}}, {"type": "node", "id": 1756219764, "lat": 51.9305769, "lon": 4.5030579, "tags": {"addr:city": "Rotterdam", "addr:housenumber": "307C", "addr:postcode": "3061AL", "addr:street": "Oudedijk", "name": "Najglam", "shop": "beauty"}}, {"type": "node", "id": 1756318449, "lat": 51.9273062, "lon": 4.5093933, "tags": {"addr:city": "Rotterdam", "addr:housenumber": "160", "addr:postcode": "3061AP", "addr:street": "Oudedijk", "check_date": "2025-08-25", "name": "Schuiten Autominiaturen", "shop": "toys", "website": "https://schuitenminiaturen.nl/"}}, {"type": "node", "id": 1756323103, "lat": 51.9277528, "lon": 4.5092666, "tags": {"addr:city": "Rotterdam", "addr:housenumber": "171", "addr:postcode": "3061AC", "addr:street": "Oudedijk", "brand": "Hubo", "brand:wikidata": "Q5473953", "brand:wikipedia": "en:Hubo Belgium", "check_date": "2025-07-27", "name": "Hubo", "shop": "doityourself"}}, {"type": "node", "id": 1756990587, "lat": 51.9310046, "lon": 4.4701152, "tags": {"addr:city": "Rotterdam", "addr:housenumber": "4", "addr:postcode": "3032AJ", "addr:street": "Schiekade", "name": "Juwelier van Willegen", "shop": "jewelry", "website": "https://www.juwelier.nu/"}}, {"type": "node", "id": 1760310814, "lat": 51.8829541, "lon": 4.5244509, "tags": {"addr:city": "Rotterdam", "addr:housenumber": "30", "addr:postcode": "3076BD", "addr:street": "Aristotelesstraat", "shop": "vacant"}}, {"type": "node", "id": 1763590356, "lat": 51.8873508, "lon": 4.5465568, "tags": {"addr:city": "Rotterdam", "addr:housenumber": "33", "addr:postcode": "3078AL", "addr:street": "Keizerswaard", "branch": "Keizerswaard", "brand": "Albert Heijn", "brand:website": "https://www.ah.nl/", "brand:wikidata": "Q1653985", "brand:wikipedia": "nl:Albert Heijn (supermarkt)", "description": "F. Beumer, Rotterdam", "name": "Albert Heijn", "opening_hours": "Mo-Th 08:00-20:00; Fr 08:00-21:00; Sa 08:00-20:00", "phone": "+31 10 482 2861", "post_office": "post_partner", "post_office:brand": "PostNL", "post_office:stamps": "yes", "ref": "1079", "shop": "supermarket", "website": "https://www.ah.nl/winkel/1079"}}, {"type": "node", "id": 1763590361, "lat": 51.8867666, "lon": 4.5484052, "tags": {"addr:city": "Rotterdam", "addr:housenumber": "58", "addr:postcode": "3078AM", "addr:street": "Keizerswaard", "brand": "Dirk", "brand:wikidata": "Q17502722", "brand:wikipedia": "en:Dirk (supermarket)", "name": "Dirk", "old_name": "Dirk van den Broek", "phone": "+31 10 479 2275", "post_office": "post_partner", "post_office:brand": "PostNL", "post_office:stamps": "yes", "shop": "supermarket", "website": "https://www.dirk.nl/"}}, {"type": "node", "id": 1763590370, "lat": 51.8826931, "lon": 4.5519537, "tags": {"addr:city": "Rotterdam", "addr:housenumber": "8-16", "addr:postcode": "3079JE", "addr:street": "Bredenoord", "brand": "PLUS", "brand:wikidata": "Q1978981", "brand:wikipedia": "nl:PLUS (Nederlandse supermarkt)", "name": "PLUS", "opening_hours": "Mo-Sa 08:00-20:00; Su 12:00-18:30", "phone": "+31 10 482 1922", "shop": "supermarket", "website": "https://www.plus.nl/supermarkten/rotterdam_plus-ijsselmonde-rotterdam-_859"}}, {"type": "node", "id": 1763590396, "lat": 51.8864046, "lon": 4.5463464, "tags": {"addr:city": "Rotterdam", "addr:housenumber": "63", "addr:postcode": "3078AL", "addr:street": "Keizerswaard", "branch": "Rotterdam Keizerswaard", "brand": "Jumbo", "brand:wikidata": "Q2262314", "brand:wikipedia": "nl:Jumbo Supermarkten", "name": "Jumbo", "note": "Winkelgegevens van website Jumbo mogen in OSM onder ODbL gebruikt worden (toestemming ontvangen op 15-6-2012)", "phone": "+31 10 292 9232", "post_office": "post_partner", "post_office:brand": "PostNL", "post_office:stamps": "yes", "shop": "supermarket", "source": "BAG", "source:date": "2014-02-11", "website": "http://www.jumbosupermarkten.nl/Alle-Jumbo-Winkels/Winkels/?storeid=2905"}}, {"type": "node", "id": 1764489847, "lat": 51.8740488, "lon": 4.4833841, "tags": {"addr:city": "Rotterdam", "addr:housenumber": "22", "addr:postcode": "3085AD", "addr:street": "Asterlo", "brand": "Albert Heijn", "brand:website": "https://www.ah.nl/", "brand:wikidata": "Q1653985", "brand:wikipedia": "nl:Albert Heijn (supermarkt)", "name": "Albert Heijn", "opening_hours": "Mo-Sa 08:00-20:00", "phone": "+31 10 480 7148", "ref": "1138", "shop": "supermarket", "source": "BAG", "source:date": "2020-04-06", "website": "https://www.ah.nl/winkel/1138", "wheelchair": "yes"}}, {"type": "node", "id": 1764489886, "lat": 51.8750795, "lon": 4.493568, "tags": {"addr:city": "Rotterdam", "addr:housenumber": "4-6", "addr:postcode": "3085DW", "addr:street": "Schere", "branch": "Both", "brand": "PLUS", "brand:wikidata": "Q1978981", "brand:wikipedia": "nl:PLUS (Nederlandse supermarkt)", "name": "PLUS", "phone": "+31 10 210 0800", "shop": "supermarket", "website": "https://www.plus.nl/supermarkten/rotterdam/plus-both"}}, {"type": "node", "id": 1769607521, "lat": 51.9190657, "lon": 4.4793152, "tags": {"addr:city": "Rotterdam", "addr:housenumber": "129", "addr:postcode": "3012AG", "addr:street": "Coolsingel", "brand:website": "https://libris.nl", "name": "Donner", "network": "Libris", "opening_hours": "Tu-Th,Sa 09:30-18:00; Mo 11:00-18:00; Fr 09:30-21:00; Su 12:00-18:00", "operator": "Donner", "shop": "books", "source": "website donner;BAG", "source:date": "2013-11-26", "website": "https://www.donner.nl/", "wikidata": "Q2429146", "wikimedia_commons": "Category:Donner bookshop (Rotterdam)", "wikipedia": "nl:Donner (boekhandel)"}}, {"type": "node", "id": 1811124747, "lat": 51.9454894, "lon": 4.4765173, "tags": {"branch": "Rotterdam 2", "brand": "Action", "brand:wikidata": "Q2634111", "brand:wikipedia": "nl:Action (winkel)", "name": "Action", "opening_hours": "Mo-Th 09:00-18:00; Fr 09:00-20:00; Sa 09:00-17:00", "operator": "Action", "shop": "variety_store", "website": "https://www.action.nl", "wheelchair": "yes"}}, {"type": "node", "id": 1811124748, "lat": 51.9267593, "lon": 4.4855558, "tags": {"branch": "Rotterdam", "brand": "Action", "brand:wikidata": "Q2634111", "brand:wikipedia": "nl:Action (winkel)", "check_date": "2025-07-28", "name": "Action", "opening_hours": "Mo-We,Sa 08:30-20:00; Th,Fr 08:30-21:00; Su 10:00-18:00", "operator": "Action", "shop": "variety_store", "website": "https://www.action.nl", "wheelchair": "yes"}}, {"type": "node", "id": 1851183285, "lat": 51.914339, "lon": 4.4960702, "tags": {"addr:city": "Rotterdam", "addr:housenumber": "56", "addr:postcode": "3071LM", "addr:street": "Van der Takstraat", "air_conditioning": "yes", "brand": "SPAR", "brand:website": "https://www.spar.nl", "brand:wikidata": "Q610492", "brand:wikipedia": "nl:Spar (supermarkt)", "email": "matze@despar.info", "name": "SPAR Matze", "opening_hours": "Mo-Fr 07:30-20:00; Sa 08:00-20:00; Su 12:00-18:00", "payment:cash": "yes", "payment:debit_cards": "yes", "phone": "+31 10 412 3783", "shop": "supermarket", "website": "https://www.spar.nl/winkels/spar-matze-464/", "wheelchair": "limited"}}, {"type": "node", "id": 1851891705, "lat": 51.921252, "lon": 4.5104762, "tags": {"addr:city": "Rotterdam", "addr:housenumber": "145A", "addr:postcode": "3062KM", "addr:street": "Voorschoterlaan", "check_date": "2025-09-05", "name": "Oosterboekhandel J. Amesz", "shop": "books", "source": "Survey", "url": "www.amesz-boekhandel.nl"}},