{"version": 0.6, "generator": "Overpass API 0.7.62.11 87bfad18", "osm3s": {"timestamp_osm_base": "2026-07-01T20:28:01Z", "copyright": "The data included in this document is from www.openstreetmap.org. The data is made available under ODbL."}, "elements": [{"type": "node", "id": 34044418, "lat": 51.9608639, "lon": 4.466891, "tags": {"addr:city": "Rotterdam", "addr:housenumber": "151", "addr:postcode": "3053GL", "addr:street": "Peppelweg", "brand": "Albert Heijn", "brand:wikidata": "Q1653985", "brand:wikipedia": "nl:Albert Heijn (supermarkt)", "name": "Albert Heijn", "opening_hours": "Mo-Sa 08:00-22:00; Su 09:00-22:00", "phone": "+31 10 422 7476", "ref": "1561", "shop": "supermarket", "source": "BAG", "source:date": "2014-03-24", "website": "https://www.ah.nl/winkel/1561"}}, {"type": "node", "id": 34044420, "lat": 51.912715, "lon": 4.458232, "tags": {"addr:city": "Rotterdam", "addr:housenumber": "288B", "addr:postcode": "3021GS", "addr:street": "Nieuwe Binnenweg", "brand": "Albert Heijn", "brand:wikidata": "Q1653985", "brand:wikipedia": "nl:Albert Heijn (supermarkt)", "name": "Albert Heijn", "opening_hours": "Mo-Su 08:00-22:00", "phone": "+31 10 425 8711", "ref": "1367", "shop": "supermarket", "website": "https://www.ah.nl/winkel/1367", "wheelchair": "yes"}}, {"type": "node", "id": 34044421, "lat": 51.9307167, "lon": 4.4576859, "tags": {"addr:city": "Rotterdam", "addr:housenumber": "103", "addr:postcode": "3039HJ", "addr:street": "Statenweg", "brand": "Albert Heijn", "brand:wikidata": "Q1653985", "brand:wikipedia": "nl:Albert Heijn (supermarkt)", "name": "Albert Heijn", "opening_hours": "Mo-Sa 08:00-22:00; Su 09:00-22:00", "phone": "+31 10 467 0898", "ref": "1409", "shop": "supermarket", "source": "BAG", "source:date": "2014-03-24", "website": "https://www.ah.nl/winkel/1409"}}, {"type": "node", "id": 34044422, "lat": 51.9178008, "lon": 4.4448847, "tags": {"addr:city": "Rotterdam", "addr:housenumber": "76", "addr:postcode": "3022LD", "addr:street": "Mathenesserplein", "brand": "Albert Heijn", "brand:website": "https://www.ah.nl", "brand:wikidata": "Q1653985", "brand:wikipedia": "nl:Albert Heijn (supermarkt)", "dog": "no", "internet_access": "wlan", "internet_access:fee": "customers", "name": "Albert Heijn", "opening_hours": "Mo-Su,PH 08:00-22:00", "organic": "yes", "payment:cards": "yes", "payment:cash": "yes", "payment:qr_code": "no", "phone": "+31 10 425 3737", "ref": "1368", "shop": "supermarket", "website": "https://www.ah.nl/winkel/1368"}}, {"type": "node", "id": 34044435, "lat": 51.9112483, "lon": 4.4780746, "tags": {"addr:city": "Rotterdam", "addr:housenumber": "108", "addr:postcode": "3011BP", "addr:street": "Vasteland", "brand": "Albert Heijn", "brand:wikidata": "Q1653985", "brand:wikipedia": "nl:Albert Heijn (supermarkt)", "check_date": "2024-08-22", "name": "Albert Heijn", "opening_hours": "08:00-22:00", "phone": "+31 10 413 5550", "ref": "1263", "shop": "supermarket", "source": "BAG", "source:date": "2013-11-26", "website": "https://www.ah.nl/winkel/1263"}}, {"type": "node", "id": 34044436, "lat": 51.9282592, "lon": 4.4890106, "tags": {"addr:city": "Rotterdam", "addr:housenumber": "707", "addr:postcode": "3031CG", "addr:street": "Goudse Rijweg", "brand": "Albert Heijn", "brand:wikidata": "Q1653985", "brand:wikipedia": "nl:Albert Heijn (supermarkt)", "name": "Albert Heijn", "opening_hours": "Mo-Sa 08:00-20:00; Su 12:00-18:00", "phone": "+31 10 412 1903", "ref": "1414", "shop": "supermarket", "website": "https://www.ah.nl/winkel/1414"}}, {"type": "node", "id": 34044437, "lat": 51.9451639, "lon": 4.4810961, "tags": {"addr:city": "Rotterdam", "addr:housenumber": "45", "addr:postcode": "3051GJ", "addr:street": "Kleiweg", "brand": "Albert Heijn", "brand:website": "https://www.ah.nl/", "brand:wikidata": "Q1653985", "brand:wikipedia": "nl:Albert Heijn (supermarkt)", "name": "Albert Heijn", "opening_hours": "Mo-Sa 08:00-21:00; Su 10:00-20:00", "phone": "+31 10 461 2341", "ref": "8689", "shop": "supermarket", "source": "BAG", "source:date": "2014-02-11", "website": "https://www.ah.nl/winkel/8689", "wheelchair": "yes"}}, {"type": "node", "id": 34044440, "lat": 51.9286636, "lon": 4.5462089, "tags": {"addr:city": "Rotterdam", "addr:country": "NL", "addr:housenumber": "89", "addr:postcode": "3065JK", "addr:street": "Mia van IJperenplein", "brand": "Albert Heijn", "brand:website": "https://www.ah.nl/", "brand:wikidata": "Q1653985", "brand:wikipedia": "nl:Albert Heijn (supermarkt)", "name": "Albert Heijn", "opening_hours": "Mo-Th,Sa 08:00-20:00; Fr 08:00-21:00; Su 12:00-18:00", "phone": "+31 10 447 1330", "ref": "1592", "shop": "supermarket", "website": "https://www.ah.nl/winkel/1592"}}, {"type": "node", "id": 34045005, "lat": 51.896699, "lon": 4.5100087, "tags": {"addr:city": "Rotterdam", "addr:housenumber": "61", "addr:postcode": "3074GG", "addr:street": "Strijensestraat", "brand": "ALDI", "brand:wikidata": "Q41171373", "brand:wikipedia": "en:Aldi", "description": "Rotterdam, Strijensestraat 61-63", "name": "ALDI", "note": "ODBL clean: geen disclaimer/copyright aangetroffen op winkelgegevens Aldi (stand: juni 2012)", "shop": "supermarket", "source": "BAG", "source:date": "2014-03-24"}}, {"type": "node", "id": 34045006, "lat": 51.8734096, "lon": 4.470013, "tags": {"brand": "ALDI", "brand:website": "https://www.aldi.nl/", "brand:wikidata": "Q41171373", "brand:wikipedia": "nl:Aldi", "description": "Rotterdam,Plein 1953 Nr. 187", "name": "ALDI", "note": "ODBL clean: geen disclaimer/copyright aangetroffen op winkelgegevens Aldi (stand: juni 2012)", "shop": "supermarket"}}, {"type": "node", "id": 34045012, "lat": 51.9328868, "lon": 4.4712576, "tags": {"addr:city": "Rotterdam", "addr:housenumber": "8-10", "addr:postcode": "3037EP", "addr:street": "Eudokiaplein", "branch": "Rotterdam Bergpolder", "brand": "ALDI", "brand:wikidata": "Q41171373", "brand:wikipedia": "en:Aldi", "name": "ALDI", "note": "ODBL clean: geen disclaimer/copyright aangetroffen op winkelgegevens Aldi (stand: jan 2019)", "opening_hours": "Mo-Sa 08:00-20:00, Su 12:00-18:00", "operator": "ALDI Noord", "shop": "supermarket", "wheelchair": "yes"}}, {"type": "node", "id": 34045029, "lat": 51.9163326, "lon": 4.499788, "tags": {"addr:city": "Rotterdam", "addr:housenumber": "23A", "addr:postcode": "3071NA", "addr:street": "Maaskade", "brand": "ALDI", "brand:website": "https://www.aldi.nl/", "brand:wikidata": "Q41171373", "brand:wikipedia": "nl:Aldi", "name": "ALDI", "note": "ODBL clean: geen disclaimer/copyright aangetroffen op winkelgegevens Aldi (stand: juni 2012)", "shop": "supermarket", "wheelchair": "yes"}}, {"type": "node", "id": 34045482, "lat": 51.8962902, "lon": 4.5099096, "tags": {"addr:city": "Rotterdam", "addr:housenumber": "77", "addr:postcode": "3074GH", "addr:street": "Strijensestraat", "brand": "Albert Heijn", "brand:wikidata": "Q1653985", "brand:wikipedia": "nl:Albert Heijn (supermarkt)", "description": "Rotterdam", "name": "Albert Heijn", "opening_hours": "Mo-Th 08:00-20:00; Fr 08:00-21:00; Sa 08:00-20:00; Su 12:00-18:00", "phone": "+31 10 484 7947", "ref": "1830", "shop": "supermarket", "source": "BAG", "source:date": "2014-03-24", "website": "https://www.ah.nl/winkel/1830", "wheelchair": "yes"}}, {"type": "node", "id": 34045486, "lat": 51.9328876, "lon": 4.4707503, "tags": {"addr:city": "Rotterdam", "addr:housenumber": "12", "addr:postcode": "3037BT", "addr:street": "Eudokiaplein", "brand": "Albert Heijn", "brand:wikidata": "Q1653985", "brand:wikipedia": "nl:Albert Heijn (supermarkt)", "description": "Albert Heijn, Rotterdam", "name": "Albert Heijn", "opening_hours": "Mo-Th 08:00-20:00; Fr 08:00-21:00; Sa 08:00-20:00; Su 12:00-18:00", "phone": "+31 10 265 6378", "ref": "1822", "shop": "supermarket", "source": "BAG", "source:date": "2017-07-08", "website": "https://www.ah.nl/winkel/1822", "wheelchair": "yes"}}, {"type": "node", "id": 34046259, "lat": 51.9106899, "lon": 4.4986059, "tags": {"addr:city": "Rotterdam", "addr:country": "NL", "addr:housenumber": "33", "addr:postcode": "3071PS", "addr:street": "Vijf Werelddelen", "branch": "Rotterdam Vijf Werelddelen", "brand": "Jumbo", "brand:website": "https://www.jumbo.com", "brand:wikidata": "Q2262314", "brand:wikipedia": "nl:Jumbo Supermarkten", "name": "Jumbo", "note": "Winkelgegevens van website Jumbo mogen in OSM onder ODbL gebruikt worden (toestemming ontvangen op 15-6-2012)", "opening_hours": "Mo-Sa 08:00-21:00; Su 10:00-20:00", "phone": "+31 10 485 0111", "ref": "2805", "shop": "supermarket", "source": "BAG", "source:date": "2017-06-08", "website": "https://www.jumbo.com/winkel/rotterdam/jumbo-rotterdam-vijf-werelddelen"}}, {"type": "node", "id": 290924768, "lat": 51.913837, "lon": 4.5208547, "tags": {"brand": "PLUS", "brand:wikidata": "Q1978981", "brand:wikipedia": "nl:PLUS (Nederlandse supermarkt)", "name": "PLUS", "shop": "supermarket", "website": "https://www.plus.nl/"}}, {"type": "node", "id": 410592100, "lat": 51.9318996, "lon": 4.4633961, "tags": {"addr:city": "Rotterdam", "addr:housenumber": "135", "addr:postcode": "3038EA", "addr:street": "Stadhoudersplein", "branch": "Blijdorp", "brand": "PLUS", "brand:website": "https://www.plus.nl", "brand:wikidata": "Q1978981", "brand:wikipedia": "nl:PLUS (Nederlandse supermarkt)", "check_date": "2025-07-22", "name": "PLUS", "opening_hours": "Mo-Sa 08:00-21:00; Su 09:00-21:00; PH 12:00-19:00", "phone": "+31 10 4664015", "post_office": "post_partner", "post_office:operator": "PostNL", "post_office:operator:wikidata": "Q5921598", "shop": "supermarket", "website": "https://www.plus.nl/supermarkten/rotterdam_plus-blijdorp_746", "wheelchair": "yes"}}, {"type": "node", "id": 429685278, "lat": 51.9040116, "lon": 4.458964, "tags": {"addr:city": "Rotterdam", "addr:housenumber": "116", "addr:postcode": "3024EJ", "addr:street": "Sint-Jobsweg", "brand": "Albert Heijn", "brand:wikidata": "Q1653985", "brand:wikipedia": "nl:Albert Heijn (supermarkt)", "name": "Albert Heijn", "opening_hours": "Mo-Th 08:00-20:00; Fr 08:00-21:00; Sa 08:00-20:00; Su 12:00-18:00", "phone": "+31 10 276 3263", "ref": "1636", "shop": "supermarket", "website": "https://www.ah.nl/winkel/1636"}}, {"type": "node", "id": 429685279, "lat": 51.9189765, "lon": 4.4768701, "tags": {"addr:city": "Rotterdam", "addr:housenumber": "121", "addr:postcode": "3012EN", "addr:street": "Lijnbaan", "brand": "Albert Heijn", "brand:wikidata": "Q1653985", "brand:wikipedia": "nl:Albert Heijn (supermarkt)", "name": "Albert Heijn", "opening_hours": "Mo-Th 08:00-20:00; Fr 08:00-21:00; Sa 08:00-20:00; Su 12:00-18:00", "phone": "+31 10 413 7133", "ref": "1540", "shop": "supermarket", "source": "BAG", "source:date": "2013-11-26", "website": "https://www.ah.nl/winkel/1540", "wheelchair": "yes"}}, {"type": "node", "id": 429685286, "lat": 51.9504636, "lon": 4.554058, "tags": {"addr:city": "Rotterdam", "addr:housenumber": "36", "addr:postcode": "3067LX", "addr:street": "Poolsterstraat", "brand": "Albert Heijn", "brand:wikidata": "Q1653985", "brand:wikipedia": "nl:Albert Heijn (supermarkt)", "name": "Albert Heijn", "opening_hours": "Mo-Th 08:00-20:00; Fr 08:00-21:00; Sa 08:00-20:00; Su 12:00-17:30", "phone": "+31 10 455 8982", "ref": "1623", "shop": "supermarket", "source": "BAG", "source:date": "2021-12-22", "website": "https://www.ah.nl/winkel/1623"}}, {"type": "node", "id": 429685288, "lat": 51.9281544, "lon": 4.5098783, "tags": {"addr:city": "Rotterdam", "addr:housenumber": "149", "addr:postcode": "3061AA", "addr:street": "Oudedijk", "brand": "Albert Heijn", "brand:wikidata": "Q1653985", "brand:wikipedia": "nl:Albert Heijn (supermarkt)", "level": "0", "name": "Albert Heijn", "opening_hours": "Mo-Sa 07:00-22:00; Su 08:00-22:00", "phone": "+31 10 270 9681", "ref": "1509", "shop": "supermarket", "website": "https://www.ah.nl/winkel/1509", "wheelchair": "yes"}}, {"type": "node", "id": 581993372, "lat": 51.9164072, "lon": 4.4706905, "tags": {"addr:city": "Rotterdam", "addr:housenumber": "24-30", "addr:postcode": "3015BA", "addr:street": "Nieuwe Binnenweg", "brand": "Dirk", "brand:wikidata": "Q17502722", "name": "Dirk", "old_name": "Dirk van den Broek", "shop": "supermarket", "wheelchair": "yes"}}, {"type": "node", "id": 628220062, "lat": 51.926857, "lon": 4.4625314, "tags": {"addr:city": "Rotterdam", "addr:housenumber": "139B", "addr:postcode": "3039AJ", "addr:street": "Walenburgerweg", "brand": "Dirk", "brand:wikidata": "Q17502722", "name": "Dirk", "old_name": "Dirk van den Broek", "opening_hours": "Mo-Sa 08:00-21:00; Su 12:00-20:00", "phone": "+31 88 313 4635", "shop": "supermarket", "website": "https://www.dirk.nl/winkels/rotterdam/schepenstraat/80", "wheelchair": "yes"}}, {"type": "node", "id": 663312354, "lat": 51.9606451, "lon": 4.5350934, "tags": {"addr:city": "Rotterdam", "addr:housenumber": "2", "addr:postcode": "3069KV", "addr:street": "Binnenhof", "brand": "PLUS", "brand:wikidata": "Q1978981", "brand:wikipedia": "nl:PLUS (Nederlandse supermarkt)", "name": "PLUS", "opening_hours": "Mo-Sa 08:00-21:00; Su 12:00-20:00", "phone": "+31 10 420 5090", "shop": "supermarket"}}, {"type": "node", "id": 663312557, "lat": 51.960454, "lon": 4.5324457, "tags": {"brand": "ALDI", "brand:wikidata": "Q41171373", "brand:wikipedia": "en:Aldi", "name": "ALDI", "note": "ODBL clean: geen disclaimer/copyright aangetroffen op winkelgegevens Aldi (stand: juni 2012)", "opening_hours": "Mo-Fr 08:00-20:00; Sa 08:00-18:00; Su 12:00-17:00", "shop": "supermarket"}}, {"type": "node", "id": 663312563, "lat": 51.9594531, "lon": 4.534415, "tags": {"addr:city": "Rotterdam", "addr:housenumber": "25", "addr:postcode": "3068JK", "addr:street": "Niels Bohrplaats", "brand": "Lidl", "brand:website": "https://www.lidl.nl/", "brand:wikidata": "Q151954", "brand:wikipedia": "nl:Lidl", "name": "Lidl", "opening_hours": "Mo-Sa 08:00-21:00; Su 09:00-20:00", "operator": "Lidl Nederland GmbH", "shop": "supermarket", "source": "BAG", "source:date": "2014-03-24", "website": "https://www.lidl.nl/s/nl-NL/filialen/rotterdam/niels-bohrplaats-25/"}}, {"type": "node", "id": 792621135, "lat": 51.980319, "lon": 4.5830911, "tags": {"addr:city": "Rotterdam", "addr:housenumber": "52", "addr:postcode": "3059XW", "addr:street": "Maltaplein", "brand": "Albert Heijn", "brand:wikidata": "Q1653985", "brand:wikipedia": "nl:Albert Heijn (supermarkt)", "name": "Albert Heijn", "opening_hours": "Mo-Th 08:00-20:00; Fr 08:00-21:00; Sa 08:00-20:00; Su 12:00-17:00", "phone": "+31 10 222 2846", "ref": "1453", "shop": "supermarket", "website": "https://www.ah.nl/winkel/1453"}}, {"type": "node", "id": 835822433, "lat": 51.8767856, "lon": 4.5259348, "tags": {"addr:city": "Rotterdam", "addr:country": "NL", "addr:housenumber": "4", "addr:postcode": "3076AH", "addr:street": "Pliniusstraat", "name": "Tangermarkt", "shop": "supermarket", "source": "BAG", "source:date": "2014-02-11", "wheelchair": "yes"}}, {"type": "node", "id": 839117319, "lat": 51.918134, "lon": 4.4180955, "tags": {"addr:city": "Rotterdam", "addr:housenumber": "6", "addr:postcode": "3028XX", "addr:street": "Pinkstraat", "branch": "Rotterdam Pinkstraat", "brand": "Dirk", "brand:website": "https://www.dirk.nl", "brand:wikidata": "Q17502722", "brand:wikipedia": "nl:Dirk (supermarkt)", "name": "Dirk", "old_name": "Dirk van den Broek", "opening_hours": "Mo-Sa 07:00-22:00; Su 09:00-22:00", "phone": "+31 88 313 4615", "shop": "supermarket", "source": "BAG", "source:date": "2014-03-24", "website": "https://www.dirk.nl/winkels/rotterdam/pinkstraat/76"}}, {"type": "node", "id": 928525002, "lat": 51.9402444, "lon": 4.5487898, "tags": {"addr:city": "Rotterdam", "addr:housenumber": "21", "addr:postcode": "3067AP", "addr:street": "Samuel Esmeijerplein", "brand": "Jumbo", "brand:wikidata": "Q2262314", "brand:wikipedia": "nl:Jumbo Supermarkten", "check_date": "2024-02-01", "name": "Jumbo", "opening_hours": "Mo-Sa 08:00-21:00; Su 10:00-21:00", "operator": "Jumbo", "phone": "+31 10 289 2160", "shop": "supermarket", "source": "datadigger sep 2014 eigen waarneming", "website": "http://www.jumbosupermarkten.nl/Alle-Jumbo-Winkels/Winkels/?storeid=103087", "wheelchair": "yes"}}, {"type": "node", "id": 1132082909, "lat": 51.9112209, "lon": 4.4390386, "tags": {"addr:city": "Rotterdam", "addr:housenumber": "204", "addr:postcode": "3025AM", "addr:street": "Schiedamseweg", "branch": "Rotterdam Schiedamseweg", "brand": "Dirk", "brand:website": "https://www.dirk.nl", "brand:wikidata": "Q17502722", "brand:wikipedia": "nl:Dirk (supermarkt)", "name": "Dirk", "old_name": "Dirk van den Broek", "opening_hours": "Mo-Sa 07:00-22:00; Su 09:00-22:00", "phone": "+31 88 313 4675", "shop": "supermarket", "website": "https://www.dirk.nl/winkels/rotterdam/schiedamseweg/88"}}, {"type": "node", "id": 1140905799, "lat": 51.907584, "lon": 4.46077, "tags": {"addr:city": "Rotterdam", "addr:housenumber": "49", "addr:street": "Willem Buytewechstraat", "name": "Sahan supermarkt", "shop": "supermarket"}}, {"type": "node", "id": 1421692718, "lat": 51.9303488, "lon": 4.558589, "tags": {"addr:city": "Rotterdam", "addr:housenumber": "193", "addr:postcode": "3065KA", "addr:street": "Jacques Dutilhweg", "brand": "Lidl", "brand:website": "https://www.lidl.nl/", "brand:wikidata": "Q151954", "brand:wikipedia": "nl:Lidl", "name": "Lidl", "opening_hours": "Mo-Sa 08:00-21:00; Su 09:00-20:00", "operator": "Lidl Nederland GmbH", "shop": "supermarket", "source": "BAG", "source:date": "2014-03-24", "website": "https://www.lidl.nl/s/nl-NL/filialen/rotterdam/jacques-dutilhweg-193/"}}, {"type": "node", "id": 1448467673, "lat": 51.8911394, "lon": 4.5521412, "tags": {"addr:city": "Rotterdam", "addr:housenumber": "50", "addr:postcode": "3078GX", "addr:street": "Prinsenplein", "brand": "Dirk", "brand:wikidata": "Q17502722", "brand:wikipedia": "en:Dirk (supermarket)", "check_date": "2025-08-09", "name": "Dirk", "old_name": "Dirk van den Broek", "shop": "supermarket"}}, {"type": "node", "id": 1482519194, "lat": 51.9095285, "lon": 4.4362514, "tags": {"addr:city": "Rotterdam", "addr:housenumber": "147", "addr:postcode": "3029BB", "addr:street": "Vierhavensstraat", "brand": "Albert Heijn", "brand:wikidata": "Q1653985", "brand:wikipedia": "nl:Albert Heijn (supermarkt)", "name": "Albert Heijn", "opening_hours": "Mo-Sa 08:00-22:00; Su 09:00-22:00", "phone": "+31 10 425 3081", "shop": "supermarket", "source": "BAG;survey", "source:date": "2014-03-24", "website": "https://www.ah.nl/winkel/1654"}}, {"type": "node", "id": 1498833526, "lat": 51.913201, "lon": 4.460878, "tags": {"addr:city": "Rotterdam", "addr:housenumber": "240", "addr:street": "Nieuwe Binnenweg", "brand": "Ekoplaza", "brand:wikidata": "Q47017915", "brand:wikipedia": "nl:Ekoplaza", "name": "Ekoplaza", "opening_hours": "Mo-Sa 08:30-19:00; Su 11:00-19:00", "organic": "only", "shop": "supermarket", "wheelchair": "yes"}}, {"type": "node", "id": 1602649955, "lat": 51.909881, "lon": 4.4450513, "tags": {"addr:city": "Rotterdam", "addr:country": "NL", "addr:housenumber": "62", "addr:postcode": "3025AD", "addr:street": "Schiedamseweg", "branch": "Rotterdam Schiedamseweg", "brand": "Jumbo", "brand:website": "https://www.jumbo.com", "brand:wikidata": "Q2262314", "brand:wikipedia": "nl:Jumbo Supermarkten", "name": "Jumbo", "note": "Winkelgegevens van website Jumbo mogen in OSM onder ODbL gebruikt worden (toestemming ontvangen op 15-6-2012)", "opening_hours": "Mo-Su 07:00-22:00", "organic": "yes", "payment:cards": "yes", "payment:cash": "yes", "payment:qr_code": "no", "phone": "+31 10 244 3160", "ref": "3519", "shop": "supermarket", "source": "BAG", "source:date": "2014-03-24", "website": "https://www.jumbo.com/winkel/rotterdam/jumbo-rotterdam-schiedamseweg"}}, {"type": "node", "id": 1709201946, "lat": 51.8856581, "lon": 4.5366803, "tags": {"addr:city": "Rotterdam", "addr:housenumber": "8", "addr:postcode": "3079AB", "addr:street": "Kreekplein", "amenity": "social_facility", "name": "Voedselcentrum Rotterdam Zuid Oost", "opening_hours": "Mo-Sa 09:30-20:00, Su 14:00-20:00", "operator": "Isaak & de Schittering", "shop": "supermarket", "social_facility": "food_bank", "source": "BAG", "source:date": "2014-02-11", "website": "https://stichtingisaakendeschittering.nl/voedselcentrum/"}}, {"type": "node", "id": 1747113169, "lat": 51.8848989, "lon": 4.5122765, "tags": {"addr:city": "Rotterdam", "addr:housenumber": "208", "addr:postcode": "3075GK", "addr:street": "Groenezoom", "brand": "MCD", "brand:wikidata": "Q46936596", "brand:wikipedia": "nl:MCD (supermarkt)", "name": "MCD", "opening_hours": "Mo-Sa 07:00-20:00; Su 11:00-17:00", "phone": "+31 10 419 2370", "shop": "supermarket", "source": "BAG", "source:date": "2014-03-24", "website": "https://www.mcd-supermarkt.nl/winkel/mcd-rotterdam-vreewijk/", "wheelchair": "yes"}}, {"type": "node", "id": 1749062279, "lat": 51.8773415, "lon": 4.5194112, "tags": {"addr:city": "Rotterdam", "addr:country": "NL", "addr:housenumber": "293", "addr:postcode": "3076EP", "addr:street": "Spinozaweg", "baby_feeding": "no", "brand": "Jumbo", "brand:wikidata": "Q2262314", "brand:wikipedia": "nl:Jumbo Supermarkten", "name": "Jumbo Drenkelford", "opening_hours": "Mo-Sa 07:00-21:00; Su 10:00-20:00", "post_office": "post_partner", "post_office:brand": "PostNL", "post_office:parcel_from": "yes", "post_office:parcel_to": "yes", "post_office:stamps": "yes", "shop": "supermarket", "source": "BAG", "source:date": "2014-03-24", "toilets": "no", "wheelchair": "yes"}}, {"type": "node", "id": 1763590356, "lat": 51.8873508, "lon": 4.5465568, "tags": {"addr:city": "Rotterdam", "addr:housenumber": "33", "addr:postcode": "3078AL", "addr:street": "Keizerswaard", "branch": "Keizerswaard", "brand": "Albert Heijn", "brand:website": "https://www.ah.nl/", "brand:wikidata": "Q1653985", "brand:wikipedia": "nl:Albert Heijn (supermarkt)", "description": "F. Beumer, Rotterdam", "name": "Albert Heijn", "opening_hours": "Mo-Th 08:00-20:00; Fr 08:00-21:00; Sa 08:00-20:00", "phone": "+31 10 482 2861", "post_office": "post_partner", "post_office:brand": "PostNL", "post_office:stamps": "yes", "ref": "1079", "shop": "supermarket", "website": "https://www.ah.nl/winkel/1079"}}, {"type": "node", "id": 1763590361, "lat": 51.8867666, "lon": 4.5484052, "tags": {"addr:city": "Rotterdam", "addr:housenumber": "58", "addr:postcode": "3078AM", "addr:street": "Keizerswaard", "brand": "Dirk", "brand:wikidata": "Q17502722", "brand:wikipedia": "en:Dirk (supermarket)", "name": "Dirk", "old_name": "Dirk van den Broek", "phone": "+31 10 479 2275", "post_office": "post_partner", "post_office:brand": "PostNL", "post_office:stamps": "yes", "shop": "supermarket", "website": "https://www.dirk.nl/"}}, {"type": "node", "id": 1763590370, "lat": 51.8826931, "lon": 4.5519537, "tags": {"addr:city": "Rotterdam", "addr:housenumber": "8-16", "addr:postcode": "3079JE", "addr:street": "Bredenoord", "brand": "PLUS", "brand:wikidata": "Q1978981", "brand:wikipedia": "nl:PLUS (Nederlandse supermarkt)", "name": "PLUS", "opening_hours": "Mo-Sa 08:00-20:00; Su 12:00-18:30", "phone": "+31 10 482 1922", "shop": "supermarket", "website": "https://www.plus.nl/supermarkten/rotterdam_plus-ijsselmonde-rotterdam-_859"}}, {"type": "node", "id": 1763590396, "lat": 51.8864046, "lon": 4.5463464, "tags": {"addr:city": "Rotterdam", "addr:housenumber": "63", "addr:postcode": "3078AL", "addr:street": "Keizerswaard", "branch": "Rotterdam Keizerswaard", "brand": "Jumbo", "brand:wikidata": "Q2262314", "brand:wikipedia": "nl:Jumbo Supermarkten", "name": "Jumbo", "note": "Winkelgegevens van website Jumbo mogen in OSM onder ODbL gebruikt worden (toestemming ontvangen op 15-6-2012)", "phone": "+31 10 292 9232", "post_office": "post_partner", "post_office:brand": "PostNL", "post_office:stamps": "yes", "shop": "supermarket", "source": "BAG", "source:date": "2014-02-11", "website": "http://www.jumbosupermarkten.nl/Alle-Jumbo-Winkels/Winkels/?storeid=2905"}}, {"type": "node", "id": 1764489847, "lat": 51.8740488, "lon": 4.4833841, "tags": {"addr:city": "Rotterdam", "addr:housenumber": "22", "addr:postcode": "3085AD", "addr:street": "Asterlo", "brand": "Albert Heijn", "brand:website": "https://www.ah.nl/", "brand:wikidata": "Q1653985", "brand:wikipedia": "nl:Albert Heijn (supermarkt)", "name": "Albert Heijn", "opening_hours": "Mo-Sa 08:00-20:00", "phone": "+31 10 480 7148", "ref": "1138", "shop": "supermarket", "source": "BAG", "source:date": "2020-04-06", "website": "https://www.ah.nl/winkel/1138", "wheelchair": "yes"}}, {"type": "node", "id": 1764489886, "lat": 51.8750795, "lon": 4.493568, "tags": {"addr:city": "Rotterdam", "addr:housenumber": "4-6", "addr:postcode": "3085DW", "addr:street": "Schere", "branch": "Both", "brand": "PLUS", "brand:wikidata": "Q1978981", "brand:wikipedia": "nl:PLUS (Nederlandse supermarkt)", "name": "PLUS", "phone": "+31 10 210 0800", "shop": "supermarket", "website": "https://www.plus.nl/supermarkten/rotterdam/plus-both"}}, {"type": "node", "id": 1851183285, "lat": 51.914339, "lon": 4.4960702, "tags": {"addr:city": "Rotterdam", "addr:housenumber": "56", "addr:postcode": "3071LM", "addr:street": "Van der Takstraat", "air_conditioning": "yes", "brand": "SPAR", "brand:website": "https://www.spar.nl", "brand:wikidata": "Q610492", "brand:wikipedia": "nl:Spar (supermarkt)", "email": "matze@despar.info", "name": "SPAR Matze", "opening_hours": "Mo-Fr 07:30-20:00; Sa 08:00-20:00; Su 12:00-18:00", "payment:cash": "yes", "payment:debit_cards": "yes", "phone": "+31 10 412 3783", "shop": "supermarket", "website": "https://www.spar.nl/winkels/spar-matze-464/", "wheelchair": "limited"}}, {"type": "node", "id": 1854792502, "lat": 51.9629032, "lon": 4.5542391, "tags": {"brand": "Albert Heijn", "brand:wikidata": "Q1653985", "brand:wikipedia": "nl:Albert Heijn (supermarkt)", "name": "Albert Heijn", "opening_hours": "Mo-Su 08:00-22:00", "phone": "+31 10 421 2910", "shop": "supermarket", "website": "https://www.ah.nl/winkel/1158"}}, {"type": "node", "id": 1864074204, "lat": 51.8942644, "lon": 4.4668963, "tags": {"addr:city": "Rotterdam", "addr:country": "NL", "addr:housenumber": "23", "addr:postcode": "3082AB", "addr:street": "Wolphaertsbocht", "branch": "Charlois", "brand": "Boon's Markt", "brand:website": "https://boonsmarkt.nl", "brand:wikidata": "Q97704873", "name": "Boon's Markt", "opening_hours": "Mo-Su 08:00-21:00", "phone": "+31 10 229 2010", "shop": "supermarket", "source": "BAG", "source:date": "2026-03-20", "website": "https://boonsmarkt.nl/winkels/boons-markt-charlois"}}, {"type": "node", "id": 1876040130, "lat": 51.9657557, "lon": 4.562019, "tags": {"branch": "van der Broek", "brand": "Dirk", "brand:wikidata": "Q17502722", "brand:wikipedia": "en:Dirk (supermarket)", "name": "Dirk", "old_name": "Dirk van den Broek", "opening_hours": "Mo-Sa 07:00-21:00; Su 09:00-21:00", "shop": "supermarket"}}, {"type": "node", "id": 1912221471, "lat": 51.9260152, "lon": 4.4680841, "tags": {"name": "Centraal", "shop": "supermarket", "wheelchair": "yes"}}, {"type": "node", "id": 1935316596, "lat": 51.9164169, "lon": 4.4859003, "tags": {"addr:city": "Rotterdam", "addr:housenumber": "6", "addr:postcode": "3011XH", "addr:street": "Glashaven", "brand": "SPAR", "brand:website": "https://www.spar.nl", "brand:wikidata": "Q610492", "fixme": "Winkel wordt niet meer vermeld op website van de SPAR. Bestaat deze nog?", "name": "SPAR van der Kreeken", "shop": "supermarket", "wheelchair": "limited"}}, {"type": "node", "id": 1949076306, "lat": 51.932751, "lon": 4.481075, "tags": {"name": "Gazi", "shop": "supermarket"}}, {"type": "node", "id": 1949306625, "lat": 51.9231942, "lon": 4.4861611, "tags": {"addr:city": "Rotterdam", "addr:housenumber": "13-19", "addr:postcode": "3011HE", "addr:street": "Botersloot", "branch": "Rotterdam Botersloot", "brand": "Jumbo", "brand:website": "https://www.jumbo.com", "brand:wikidata": "Q2262314", "brand:wikipedia": "nl:Jumbo Supermarkten", "name": "Jumbo", "opening_hours": "Mo-Sa 07:00-22:00; Su 08:00-22:00", "phone": "+31 10 4443410", "shop": "supermarket", "website": "https://www.jumbo.com/winkel/rotterdam/jumbo-rotterdam-botersloot", "wheelchair": "yes"}}, {"type": "node", "id": 1974983358, "lat": 51.9233083, "lon": 4.4838381, "tags": {"addr:city": "Rotterdam", "addr:housenumber": "77", "addr:postcode": "3011HB", "addr:street": "Binnenrotte", "brand": "Dirk", "brand:wikidata": "Q17502722", "name": "Dirk", "old_name": "Dirk van den Broek", "shop": "supermarket", "website": "https://www.dirk.nl/winkels/rotterdam/binnenrotte/320"}}, {"type": "node", "id": 1978989117, "lat": 51.917756, "lon": 4.417155, "tags": {"name": "Grab 'n Go", "shop": "supermarket"}}, {"type": "node", "id": 2105447710, "lat": 51.927001, "lon": 4.4618502, "tags": {"addr:city": "Rotterdam", "addr:housenumber": "40", "addr:postcode": "3039KM", "addr:street": "Bentinckplein", "brand": "Albert Heijn", "brand:wikidata": "Q1653985", "brand:wikipedia": "nl:Albert Heijn (supermarkt)", "check_date": "2025-04-09", "name": "Albert Heijn", "opening_hours": "Mo-Sa 07:00-22:00; Su 08:00-22:00", "ref": "1342", "shop": "supermarket", "source": "BAG", "source:date": "2013-11-26", "website": "https://www.ah.nl/winkel/1342", "wheelchair": "yes"}}, {"type": "node", "id": 2140074774, "lat": 51.9344433, "lon": 4.4285739, "tags": {"addr:city": "Rotterdam", "addr:housenumber": "195", "addr:postcode": "3042AD", "addr:street": "Burgemeester Baumannlaan", "brand": "Lidl", "brand:website": "https://www.lidl.nl/", "brand:wikidata": "Q151954", "brand:wikipedia": "nl:Lidl", "name": "Lidl", "opening_hours": "Mo-Th 08:00-20:00; Fr 08:00-21:00; Sa 08:00-20:00; Su 10:00-19:00", "operator": "Lidl Nederland GmbH", "shop": "supermarket", "source": "BAG", "source:date": "2014-02-11", "website": "https://www.lidl.nl/s/nl-NL/filialen/rotterdam/burg-baumannlaan-195/"}}, {"type": "node", "id": 2153312559, "lat": 51.9159915, "lon": 4.4369206, "tags": {"addr:city": "Rotterdam", "addr:housenumber": "123", "addr:postcode": "3027BG", "addr:street": "Mathenesserdijk", "brand": "Lidl", "brand:website": "https://www.lidl.nl/", "brand:wikidata": "Q151954", "brand:wikipedia": "nl:Lidl", "name": "Lidl", "opening_hours": "Mo-Sa 08:00-21:00; Su 10:00-21:00", "operator": "Lidl Nederland GmbH", "shop": "supermarket", "source": "BAG", "source:date": "2014-03-24", "website": "https://www.lidl.nl/s/nl-NL/filialen/rotterdam/mathenesserdijk-123/"}}, {"type": "node", "id": 2288042587, "lat": 51.9287252, "lon": 4.5014878, "tags": {"addr:city": "Rotterdam", "addr:housenumber": "61", "addr:postcode": "3061DV", "addr:street": "Vlietlaan", "brand": "Albert Heijn", "brand:website": "https://www.ah.nl", "brand:wikidata": "Q1653985", "brand:wikipedia": "nl:Albert Heijn (supermarkt)", "name": "Albert Heijn", "opening_hours": "Mo-Sa 08:00-22:00; Su 08:00-22:00", "phone": "+31 10 212 0880", "shop": "supermarket", "source": "Local;BAG", "source:date": "2014-03-24", "website": "https://www.ah.nl/winkel/1574", "wheelchair": "yes"}}, {"type": "node", "id": 2432335353, "lat": 51.9386434, "lon": 4.4792884, "tags": {"addr:city": "Rotterdam", "addr:housenumber": "91", "addr:postcode": "3037ED", "addr:street": "Bergweg", "brand": "Dirk", "brand:wikidata": "Q17502722", "brand:wikipedia": "nl:Dirk (supermarkt)", "contact:website": "https://www.dirk.nl/winkels", "name": "Dirk", "opening_hours": "Mo-Sa 07:00-22:00; Su 09:00-22:00", "operator": "Dirk", "phone": "+31 88 313 4650", "shop": "supermarket", "source": "BAG", "source:date": "2014-02-11", "website": "https://www.dirk.nl"}}, {"type": "node", "id": 2502444190, "lat": 51.9207756, "lon": 4.4699443, "tags": {"addr:city": "Rotterdam", "addr:housenumber": "15", "addr:postcode": "3014AJ", "addr:street": "West-Kruiskade", "addr:unit": "A", "name": "Supermarkt & Slijterij Kruiskade", "shop": "supermarket"}}, {"type": "node", "id": 2502444196, "lat": 51.9203565, "lon": 4.4696257, "tags": {"addr:city": "Rotterdam", "addr:country": "NL", "addr:housenumber": "26", "addr:postcode": "3014AS", "addr:street": "West-Kruiskade", "brand:website": "https://amazingoriental.com", "check_date": "2025-12-02", "cuisine": "chinese", "name": "Amazing Oriental", "name:zh-Hans": "\u4e1c\u65b9\u884c", "opening_hours": "Mo-Th,Sa 09:00-19:00; Fr 09:00-21:00; Su 12:00-18:00", "shop": "supermarket", "website": "https://amazingoriental.com/Location/winkels-rotterdam-centrum", "wheelchair": "yes"}}, {"type": "node", "id": 2502444203, "lat": 51.92071, "lon": 4.4707818, "tags": {"addr:city": "Rotterdam", "addr:country": "NL", "addr:housenumber": "4,6", "addr:postcode": "3014AP", "addr:street": "West-Kruiskade", "name": "Wah Nam Hong", "origin": "asian", "phone": "+31 10 241 7355", "shop": "supermarket", "website": "https://www.wahnamhong.nl"}}, {"type": "node", "id": 2610218802, "lat": 51.9146079, "lon": 4.4654464, "tags": {"addr:city": "Rotterdam", "addr:housenumber": "190", "addr:postcode": "3014HE", "addr:street": "Mathenesserlaan", "name": "Upfront", "opening_hours": "Mo-Su 08:00-22:00", "operator": "Upfront", "operator:website": "https://upfront.nl", "shop": "supermarket", "source": "BAG", "source:date": "2013-11-26"}}, {"type": "node", "id": 2610259404, "lat": 51.9227257, "lon": 4.4934676, "tags": {"addr:city": "Rotterdam", "addr:housenumber": "44A", "addr:postcode": "3011PS", "addr:street": "Hoogstraat", "name": "Slijterij", "opening_hours": "Mo-Sa 10:00-19:00", "shop": "supermarket", "source": "BAG", "source:date": "2013-11-26", "website": "https://bogatir.nl"}}, {"type": "node", "id": 2610260338, "lat": 51.9231275, "lon": 4.4778373, "tags": {"addr:city": "Rotterdam", "addr:housenumber": "47", "addr:postcode": "3012AA", "addr:street": "Coolsingel", "brand": "Albert Heijn", "brand:wikidata": "Q1653985", "brand:wikipedia": "nl:Albert Heijn (supermarkt)", "level": "0", "name": "Albert Heijn", "opening_hours": "Mo-Sa 08:00-21:00; Su 12:00-20:00; PH closed", "organic": "yes", "phone": "+31 10 313 8684", "shop": "supermarket", "source": "BAG", "source:date": "2013-11-26", "website": "https://www.ah.nl/winkel/1870", "wheelchair": "yes"}}, {"type": "node", "id": 2610266222, "lat": 51.9220161, "lon": 4.4936636, "tags": {"addr:city": "Rotterdam", "addr:housenumber": "55", "addr:postcode": "3011SN", "addr:street": "Groenendaal", "brand": "Albert Heijn", "brand:wikidata": "Q1653985", "brand:wikipedia": "nl:Albert Heijn (supermarkt)", "name": "Albert Heijn", "opening_hours": "Mo-Sa 08:00-22:00; Su 09:00-22:00", "shop": "supermarket", "source": "BAG", "source:date": "2013-11-26", "website": "https://www.ah.nl/winkel/1212", "wheelchair": "yes"}}, {"type": "node", "id": 2610266820, "lat": 51.9190216, "lon": 4.4641459, "tags": {"addr:city": "Rotterdam", "addr:housenumber": "56", "addr:postcode": "3014BG", "addr:street": "1e Middellandstraat", "brand": "Albert Heijn", "brand:website": "https://www.ah.nl/", "brand:wikidata": "Q1653985", "level": "0", "name": "Albert Heijn", "opening_hours": "Mo-Su 08:00-22:00", "ref": "2307", "shop": "supermarket", "source": "BAG", "source:date": "2013-11-26", "website": "https://www.ah.nl/winkel/2307"}}, {"type": "node", "id": 2610272392, "lat": 51.9227855, "lon": 4.4885209, "tags": {"addr:city": "Rotterdam", "addr:housenumber": "72A", "addr:postcode": "3011LK", "addr:street": "Pannekoekstraat", "contact:email": "rotterdam@kellys-expat-shopping.nl", "diet:gluten_free": "yes", "name": "Kellys Expat Shopping", "opening_hours": "Mo-Fr 10:00-18:00; Sa 10:00-18:00; Su 10:00-17:00", "payment:cash": "yes", "payment:credit_cards": "yes", "payment:debit_cards": "yes", "phone": "+31 6 25546907", "shop": "supermarket", "source": "BAG", "source:date": "2013-11-26", "website": "https://www.kellys-expat-shopping.nl/nl/winkels-11361429/rotterdam/", "wheelchair": "limited"}}, {"type": "node", "id": 2610273227, "lat": 51.9163799, "lon": 4.4693244, "tags": {"addr:city": "Rotterdam", "addr:housenumber": "75", "addr:postcode": "3014GE", "addr:street": "Nieuwe Binnenweg", "brand": "Albert Heijn", "brand:wikidata": "Q1653985", "brand:wikipedia": "nl:Albert Heijn (supermarkt)", "check_date": "2024-08-19", "level": "0", "name": "Albert Heijn", "opening_hours": "Mo-Sa 08:00-22:00; Su 10:00-22:00; PH unknown", "organic": "yes", "phone": "+31 10 303 1933", "shop": "supermarket", "source": "BAG", "source:date": "2013-11-26", "website": "https://www.ah.nl/winkel/2216", "wheelchair": "yes"}}, {"type": "node", "id": 2768385519, "lat": 51.9649134, "lon": 4.5710353, "tags": {"addr:city": "Rotterdam", "addr:housenumber": "30", "addr:postcode": "3068GV", "addr:street": "Ambachtsplein", "brand": "Lidl", "brand:website": "https://www.lidl.nl/", "brand:wikidata": "Q151954", "brand:wikipedia": "nl:Lidl", "name": "Lidl", "opening_hours": "Mo-Th 08:00-20:00; Fr 08:00-21:00; Sa 08:00-20:00; Su 09:00-20:00", "operator": "Lidl Nederland GmbH", "phone": "+31 10 709 5039", "shop": "supermarket", "source": "BAG", "source:date": "2014-03-24", "website": "https://www.lidl.nl/s/nl-NL/filialen/rotterdam/ambachtsplein-30/"}}, {"type": "node", "id": 2768391932, "lat": 51.9655939, "lon": 4.5712281, "tags": {"addr:city": "Rotterdam", "addr:housenumber": "9", "addr:postcode": "3068GV", "addr:street": "Ambachtsplein", "name": "Multimarkt Ambachtsplein", "payment:cards": "yes", "payment:cash": "yes", "phone": "+31 10 7370793", "shop": "supermarket", "source": "BAG", "source:date": "2014-03-24"}}, {"type": "node", "id": 2770802951, "lat": 51.9603388, "lon": 4.5323951, "tags": {"addr:city": "Rotterdam", "addr:housenumber": "39", "addr:postcode": "3069KV", "addr:street": "Binnenhof", "brand": "ALDI", "brand:website": "https://www.aldi.nl", "brand:wikidata": "Q41171373", "name": "ALDI", "opening_hours": "Mo-Fr 08:00-20:00; Sa 08:00-18:00; Su 12:00-17:00", "phone": "+31 88 2029300", "shop": "supermarket", "source": "BAG", "source:date": "2014-03-24", "website": "https://www.aldi.nl/supermarkt/rotterdam/binnenhof-39/3187756.html"}}, {"type": "node", "id": 2770805647, "lat": 51.9622976, "lon": 4.5505502, "tags": {"addr:city": "Rotterdam", "addr:housenumber": "435", "addr:postcode": "3069EA", "addr:street": "Hesseplaats", "brand": "Jumbo", "brand:website": "https://www.jumbo.com", "brand:wikidata": "Q2262314", "check_date": "2025-08-03", "name": "Jumbo Le Febre", "opening_hours": "Mo-Sa 08:00-21:00; Su 12:00-21:00", "shop": "supermarket", "source": "BAG", "source:date": "2014-03-24", "website": "https://www.jumbo.com/winkel/rotterdam/jumbo-rotterdam-le-febre"}}, {"type": "node", "id": 2771036348, "lat": 51.9582423, "lon": 4.5449958, "tags": {"addr:city": "Rotterdam", "addr:housenumber": "4", "addr:postcode": "3068BT", "addr:street": "Nieuwe Ommoordseweg", "brand": "Dirk", "brand:wikidata": "Q17502722", "brand:wikipedia": "en:Dirk (supermarket)", "check_date": "2026-04-27", "name": "Dirk", "old_name": "Dirk van den Broek", "opening_hours": "Mo-We,Sa 08:00-20:00; Th,Fr 08:00-21:00; Su 12:00-19:00", "shop": "supermarket", "source": "BAG", "source:date": "2014-03-24"}}, {"type": "node", "id": 2783879023, "lat": 51.9433192, "lon": 4.5375884, "tags": {"addr:city": "Rotterdam", "addr:housenumber": "182", "addr:postcode": "3067LE", "addr:street": "Jacob van Campenplein", "branch": "Rotterdam Prins Alexander", "brand": "Sahan", "brand:wikidata": "Q134894963", "name": "Sahan", "opening_hours": "Mo-Sa 08:00-20:00, Su 11:00-18:00", "phone": "+31 85 822 57 17", "shop": "supermarket", "source": "BAG;survey", "source:date": "2025-07-22", "website": "https://sahan.nl"}}, {"type": "node", "id": 2783894821, "lat": 51.9418839, "lon": 4.5476374, "tags": {"addr:city": "Rotterdam", "addr:housenumber": "4", "addr:postcode": "3067AK", "addr:street": "Marinus Bolkplein", "brand": "Albert Heijn", "brand:wikidata": "Q1653985", "brand:wikipedia": "nl:Albert Heijn (supermarkt)", "name": "Albert Heijn", "opening_hours": "Mo-Sa 07:00-22:00; Su 08:00-22:00", "operator": "Albert Heijn", "phone": "+31 10 420 4640", "shop": "supermarket", "source": "BAG", "source:date": "2014-03-24", "website": "https://www.ah.nl/winkel/1054", "wheelchair": "yes"}}, {"type": "node", "id": 2786676666, "lat": 51.8931349, "lon": 4.5095676, "tags": {"addr:city": "Rotterdam", "addr:housenumber": "172", "addr:postcode": "3074AA", "addr:street": "Groene Hilledijk", "name": "Supermarkt Dunya", "phone": "+31 10 291 0068", "shop": "supermarket", "source": "BAG", "source:date": "2014-03-24", "website": "http://supermarktdunya.com/"}}, {"type": "node", "id": 2787435138, "lat": 51.8895647, "lon": 4.4872206, "tags": {"addr:city": "Rotterdam", "addr:housenumber": "12A", "addr:postcode": "3083EC", "addr:street": "Pleinweg", "name": "S\u0142oneczko", "phone": "+31 6 42470934", "shop": "supermarket", "source": "BAG", "source:date": "2014-03-24"}}, {"type": "node", "id": 2787444923, "lat": 51.8907337, "lon": 4.4802285, "tags": {"addr:city": "Rotterdam", "addr:housenumber": "20A", "addr:postcode": "3083RN", "addr:street": "Ebenha\u00ebzerstraat", "name": "Groszek 3", "shop": "supermarket", "source": "BAG", "source:date": "2014-03-24"}}, {"type": "node", "id": 2787445354, "lat": 51.8909334, "lon": 4.4757406, "tags": {"addr:city": "Rotterdam", "addr:housenumber": "212", "addr:postcode": "3083MS", "addr:street": "Wolphaertsbocht", "contact:facebook": "SUPERSAM.NL", "cuisine": "polish", "name": "Super Sam", "shop": "supermarket", "source": "BAG", "source:date": "2014-03-24"}}, {"type": "node", "id": 2787468460, "lat": 51.8935515, "lon": 4.5018537, "tags": {"addr:city": "Rotterdam", "addr:housenumber": "115", "addr:postcode": "3073BK", "addr:street": "Lange Hilleweg", "name": "Groszek xxl", "opening_hours": "Mo-Sa 08:00-22:00, Su 10:00-21:00", "payment:cards": "yes", "payment:cash": "yes", "payment:contactless": "yes", "payment:google_pay": "yes", "shop": "supermarket", "source": "BAG", "source:date": "2014-03-24"}}, {"type": "node", "id": 2787497072, "lat": 51.8904088, "lon": 4.5078299, "tags": {"addr:city": "Rotterdam", "addr:housenumber": "257B", "addr:postcode": "3073AJ", "addr:street": "Groene Hilledijk", "name": "ABC XXL Rotterdam", "opening_hours": "Mo-Su 08:00-21:00", "shop": "supermarket", "source": "BAG", "source:date": "2014-03-24"}}, {"type": "node", "id": 2788120277, "lat": 51.9043686, "lon": 4.503484, "tags": {"addr:city": "Rotterdam", "addr:housenumber": "340", "addr:postcode": "3071AR", "addr:street": "Vuurplaat", "brand": "Lidl", "brand:website": "https://www.lidl.nl/", "brand:wikidata": "Q151954", "brand:wikipedia": "nl:Lidl", "level": "0", "name": "Lidl", "opening_hours": "Mo-Sa 07:00-22:00; Su 10:00-21:00", "operator": "Lidl Nederland GmbH", "shop": "supermarket", "source": "BAG", "source:date": "2014-02-11", "website": "https://www.lidl.nl/s/nl-NL/filialen/rotterdam/vuurplaat-340/", "wheelchair": "yes"}}, {"type": "node", "id": 2788164732, "lat": 51.8953507, "lon": 4.4872311, "tags": {"addr:city": "Rotterdam", "addr:housenumber": "2", "addr:postcode": "3081NP", "addr:street": "Hellevoetstraat", "branch": "Rotterdam", "brand": "Dirk", "brand:website": "https://www.dirk.nl", "brand:wikidata": "Q17502722", "name": "Dirk", "old_name": "Dirk van den Broek", "opening_hours": "Mo-Sa 07:00-21:00; Su 09:00-21:00", "phone": "+31 88 313 4665", "shop": "supermarket", "source": "BAG", "source:date": "2014-03-24", "website": "https://www.dirk.nl/winkels/rotterdam/hellevoetstraat/86"}}, {"type": "node", "id": 2788558392, "lat": 51.8740137, "lon": 4.4679437, "tags": {"addr:city": "Rotterdam", "addr:housenumber": "22", "addr:postcode": "3086ED", "addr:street": "Plein 1953", "name": "\u00d6zler Market", "shop": "supermarket", "source": "BAG", "source:date": "2014-03-24"}}, {"type": "node", "id": 2788562104, "lat": 51.8741565, "lon": 4.4684437, "tags": {"addr:city": "Rotterdam", "addr:housenumber": "31", "addr:postcode": "3086ED", "addr:street": "Plein 1953", "brand": "Dirk", "brand:wikidata": "Q17502722", "brand:wikipedia": "nl:Dirk (supermarkt)", "name": "Dirk van der Broek", "opening_hours": "Mo-Fr 08:00-21:00; Sa 08:00-20:00; Su 10:00-20:00", "shop": "supermarket", "source": "BAG", "source:date": "2014-03-24", "website": "https://www.dirk.nl/"}}, {"type": "node", "id": 2788822044, "lat": 51.8745926, "lon": 4.4940463, "tags": {"addr:city": "Rotterdam", "addr:housenumber": "247", "addr:postcode": "3085HE", "addr:street": "Langenhorst", "name": "Polski Sklep", "opening_hours": "closed", "shop": "supermarket", "source": "BAG", "source:date": "2014-03-24"}}, {"type": "node", "id": 2788840131, "lat": 51.8735916, "lon": 4.4881449, "tags": {"addr:city": "Rotterdam", "addr:housenumber": "413", "addr:postcode": "3085ES", "addr:street": "Slinge", "name": "Aytas", "shop": "supermarket", "source": "BAG", "source:date": "2014-03-24", "wheelchair": "yes"}}, {"type": "node", "id": 2789046529, "lat": 51.934695, "lon": 4.4284808, "tags": {"addr:city": "Rotterdam", "addr:housenumber": "187", "addr:postcode": "3042AD", "addr:street": "Burgemeester Baumannlaan", "brand": "PLUS", "brand:wikidata": "Q1978981", "brand:wikipedia": "nl:PLUS (Nederlandse supermarkt)", "check_date:opening_hours": "2026-05-09", "name": "PLUS", "opening_hours": "Mo-Sa 08:00-20:00; Su 10:00-19:00", "shop": "supermarket", "source": "BAG / Robin Martijn", "source:date": "2014-02-11"}}, {"type": "node", "id": 2789050553, "lat": 51.9364412, "lon": 4.4284225, "tags": {"addr:city": "Rotterdam", "addr:housenumber": "31", "addr:postcode": "3042AL", "addr:street": "Jan Steenstraat", "branch": "Rotterdam Jan Steenstraat", "brand": "Dirk", "brand:website": "https://www.dirk.nl", "brand:wikidata": "Q17502722", "brand:wikipedia": "nl:Dirk (supermarkt)", "name": "Dirk", "old_name": "Dirk van den Broek", "opening_hours": "Mo-Sa 07:00-21:00; Su 09:00-21:00", "phone": "+31 88 313 4655", "shop": "supermarket", "source": "BAG", "source:date": "2014-02-11", "website": "https://www.dirk.nl/winkels/rotterdam/jan-steenstraat/84"}}, {"type": "node", "id": 2790691169, "lat": 51.8818044, "lon": 4.5023542, "tags": {"addr:city": "Rotterdam", "addr:housenumber": "73", "addr:postcode": "3075RM", "addr:street": "Vinkenbaan", "amenity": "social_facility", "name": "Voedselcentrum Rotterdam Zuid", "operator": "Stichting Isaak & de Schittering", "shop": "supermarket", "social_facility": "food_bank", "source": "BAG", "source:date": "2014-03-24", "website": "https://stichtingisaakendeschittering.nl/voedselcentrum/"}}, {"type": "node", "id": 2790760861, "lat": 51.8777597, "lon": 4.520014, "tags": {"addr:city": "Rotterdam", "addr:housenumber": "103", "addr:postcode": "3076CE", "addr:street": "Heymansstraat", "name": "Polo-Smak", "name:nl": "Polo-Smak", "opening_hours": "Mo-Sa 09:00-22:00", "shop": "supermarket", "source": "BAG", "source:date": "2014-03-24"}}, {"type": "node", "id": 2790962432, "lat": 51.8996256, "lon": 4.4975658, "tags": {"addr:city": "Rotterdam", "addr:housenumber": "151", "addr:postcode": "3072GJ", "addr:street": "Paul Krugerstraat", "contact:website": "https://www.targetmart.nl", "name": "Target Mart", "shop": "supermarket", "source": "BAG", "source:date": "2014-02-11"}}, {"type": "node", "id": 2790971009, "lat": 51.8988894, "lon": 4.4968582, "tags": {"addr:city": "Rotterdam", "addr:housenumber": "220", "addr:postcode": "3072GS", "addr:street": "Paul Krugerstraat", "brand": "Albert Heijn", "brand:website": "https://www.ah.nl", "brand:wikidata": "Q1653985", "brand:wikipedia": "nl:Albert Heijn (supermarkt)", "description": "Regulier assortiment, vers gebakken brood.", "name": "Albert Heijn", "opening_hours": "Mo-Su 08:00-22:00", "phone": "+31 10 3229001", "ref": "2303", "shop": "supermarket", "source": "BAG", "source:date": "2014-02-11", "website": "https://www.ah.nl/winkel/2303"}}, {"type": "node", "id": 2790975241, "lat": 51.9011442, "lon": 4.4980659, "tags": {"addr:city": "Rotterdam", "addr:housenumber": "32B", "addr:postcode": "3072EN", "addr:street": "Pretorialaan", "contact:phone": "+31 6 1435 8827", "name": "Mukto Bazar - Asian and Caribbean Supermarket", "shop": "supermarket", "source": "BAG", "source:date": "2014-02-11"}}, {"type": "node", "id": 2790986598, "lat": 51.8986047, "lon": 4.5058402, "tags": {"addr:city": "Rotterdam", "addr:housenumber": "57", "addr:postcode": "3072CB", "addr:street": "Putselaan", "name": "Iberica-La Espa\u00f1ola", "opening_hours": "Mo-Th 09:00-17:30; Fr 09:00-18:00; Sa 09:00-16:00", "phone": "+31 10 484 0127", "shop": "supermarket", "source": "BAG", "source:date": "2014-02-11", "website": "https://iberica.nl"}}, {"type": "node", "id": 2796609206, "lat": 51.9158816, "lon": 4.4365911, "tags": {"addr:city": "Rotterdam", "addr:housenumber": "113", "addr:postcode": "3027BG", "addr:street": "Mathenesserdijk", "name": "Toros Markt", "shop": "supermarket", "source": "BAG", "source:date": "2014-03-24"}}, {"type": "node", "id": 2798487887, "lat": 51.9118522, "lon": 4.4538588, "tags": {"addr:city": "Rotterdam", "addr:housenumber": "362", "addr:postcode": "3023ET", "addr:street": "Nieuwe Binnenweg", "brand": "Lidl", "brand:website": "https://www.lidl.nl/", "brand:wikidata": "Q151954", "brand:wikipedia": "nl:Lidl", "name": "Lidl", "opening_hours": "Mo-Sa 08:00-22:00; Su 09:00-21:00", "operator": "Lidl Nederland GmbH", "shop": "supermarket", "source": "BAG", "source:date": "2014-03-24", "website": "https://www.lidl.nl/s/nl-NL/filialen/rotterdam/nieuwe-binnenweg-362/"}}, {"type": "node", "id": 2798489794, "lat": 51.9110981, "lon": 4.451895, "tags": {"addr:city": "Rotterdam", "addr:housenumber": "401", "addr:postcode": "3023EL", "addr:street": "Nieuwe Binnenweg", "name": "Supermarkt tromp", "shop": "supermarket", "source": "BAG", "source:date": "2014-03-24"}}, {"type": "node", "id": 2798490317, "lat": 51.9109157, "lon": 4.4516206, "tags": {"addr:city": "Rotterdam", "addr:housenumber": "405-407", "addr:postcode": "3023EM", "addr:street": "Nieuwe Binnenweg", "name": "Markt Eastern Food", "shop": "supermarket", "source": "BAG", "source:date": "2014-03-24"}}, {"type": "node", "id": 2798545962, "lat": 51.9203898, "lon": 4.4502915, "tags": {"addr:city": "Rotterdam", "addr:housenumber": "175A", "addr:postcode": "3022DG", "addr:street": "Beukelsdijk", "name": "Stokrotka", "shop": "supermarket", "source": "BAG", "source:date": "2014-03-24"}}, {"type": "node", "id": 2805486369, "lat": 51.9241865, "lon": 4.4991722, "tags": {"addr:city": "Rotterdam", "addr:housenumber": "36", "addr:postcode": "3061CS", "addr:street": "Slaak", "brand": "Lidl", "brand:website": "https://www.lidl.nl", "brand:wikidata": "Q151954", "brand:wikipedia": "nl:Lidl", "level": "0", "name": "Lidl", "opening_hours": "Mo-Sa 08:00-22:00; Su 09:00-22:00", "operator": "Lidl Nederland GmbH", "shop": "supermarket", "source": "BAG", "source:date": "2014-03-24", "toilets:wheelchair": "yes", "website": "https://www.lidl.nl/s/nl-NL/filialen/rotterdam/slaak-36/", "wheelchair": "yes"}}, {"type": "node", "id": 2812245534, "lat": 51.93156, "lon": 4.4931881, "tags": {"addr:city": "Rotterdam", "addr:housenumber": "79", "addr:postcode": "3034HE", "addr:street": "Crooswijkseweg", "cuisine": "turkish", "name": "DAS supermarkt", "shop": "supermarket", "source": "BAG", "source:date": "2014-02-11"}}, {"type": "node", "id": 2814033228, "lat": 51.9344647, "lon": 4.4751137, "tags": {"addr:city": "Rotterdam", "addr:housenumber": "228", "addr:postcode": "3035BP", "addr:street": "Bergweg", "brand": "Albert Heijn", "brand:website": "https://www.ah.nl", "brand:wikidata": "Q1653985", "name": "Albert Heijn", "opening_hours": "Mo-Sa 08:00-22:00; Su 09:00-22:00", "phone": "+31 88 6592223", "ref": "2223", "shop": "supermarket", "source": "BAG", "source:date": "2014-02-11", "website": "https://www.ah.nl/winkel/2223"}}, {"type": "node", "id": 2814047281, "lat": 51.9330904, "lon": 4.4791444, "tags": {"addr:city": "Rotterdam", "addr:housenumber": "41A", "addr:postcode": "3035AL", "addr:street": "Zwart Janstraat", "brand": "Dirk", "brand:website": "https://www.dirk.nl", "brand:wikidata": "Q17502722", "name": "Dirk", "old_name": "Dirk van den Broek", "opening_hours": "Mo-Sa 07:00-21:00; Su 09:00-21:00", "phone": "+31 88 3134910", "shop": "supermarket", "source": "BAG", "source:date": "2014-02-11", "website": "https://www.dirk.nl/winkels/rotterdam/zwart-janstraat/330"}}, {"type": "node", "id": 2816669483, "lat": 51.9455651, "lon": 4.4775773, "tags": {"addr:city": "Rotterdam", "addr:housenumber": "125A", "addr:postcode": "3051GM", "addr:street": "Kleiweg", "name": "BioKleiweg", "opening_hours": "Mo 11:00-18:00; Tu-Sa 08:00-18:00", "organic": "only", "shop": "supermarket", "source": "BAG;survey", "source:date": "2014-02-11"}}, {"type": "node", "id": 2819291211, "lat": 51.9590084, "lon": 4.4721352, "tags": {"addr:city": "Rotterdam", "addr:housenumber": "329", "addr:postcode": "3053EA", "addr:street": "Ganzerikplein", "brand": "PLUS", "brand:website": "https://www.plus.nl", "brand:wikidata": "Q1978981", "brand:wikipedia": "nl:PLUS (Nederlandse supermarkt)", "name": "PLUS Tom Vlig", "phone": "+31 10 422 7477", "shop": "supermarket", "source": "BAG", "source:date": "2014-03-24", "website": "https://www.plus.nl/supermarkten/rotterdam_plus-tom-vlig_740"}}, {"type": "node", "id": 2821411736, "lat": 51.9588519, "lon": 4.493839, "tags": {"addr:city": "Rotterdam", "addr:housenumber": "14", "addr:postcode": "3054RP", "addr:street": "Argonautenweg", "brand": "ALDI", "brand:website": "https://www.aldi.nl/", "brand:wikidata": "Q41171373", "brand:wikipedia": "nl:Aldi", "name": "ALDI", "shop": "supermarket", "source": "BAG", "source:date": "2014-03-24", "wheelchair": "yes"}}, {"type": "node", "id": 2821438382, "lat": 51.957877, "lon": 4.4946204, "tags": {"addr:city": "Rotterdam", "addr:housenumber": "103B", "addr:postcode": "3054GC", "addr:street": "Bergse Dorpsstraat", "brand": "Dirk", "brand:wikidata": "Q17502722", "name": "Dirk", "old_name": "Dirk van den Broek", "opening_hours": "Mo-Sa 07:00-21:00; Su 09:00-19:00", "opening_hours:url": "https://www.dirk.nl/winkels/rotterdam/bergse-dorpstraat/290", "phone": "+31 88 313 4870", "shop": "supermarket", "source": "BAG;local knowledge", "source:date": "2014-03-24"}}, {"type": "node", "id": 2821674851, "lat": 51.9591278, "lon": 4.4944888, "tags": {"addr:city": "Rotterdam", "addr:housenumber": "1", "addr:postcode": "3054RP", "addr:street": "Argonautenweg", "brand": "Albert Heijn XL", "brand:wikidata": "Q78163765", "brand:wikipedia": "nl:Albert Heijn (supermarkt)", "description": "AH XL", "name": "Albert Heijn XL", "opening_hours": "Mo-Su 08:00-22:00", "phone": "+31 10 422 4375", "ref": "1648", "shop": "supermarket", "source": "BAG", "source:date": "2014-03-24", "website": "https://www.ah.nl/winkel/1648", "wheelchair": "yes"}}, {"type": "node", "id": 2821753804, "lat": 51.9600923, "lon": 4.5037665, "tags": {"addr:city": "Rotterdam", "addr:housenumber": "4", "addr:postcode": "3055JJ", "addr:street": "Van Beethovensingel", "brand": "PLUS", "brand:website": "https://www.plus.nl", "brand:wikidata": "Q1978981", "name": "PLUS Kevin van Dam", "phone": "+31 10 4180329", "shop": "supermarket", "source": "BAG", "source:date": "2014-03-24", "website": "https://www.plus.nl/supermarkten/rotterdam_plus-kevin-van-dam_994"}}, {"type": "node", "id": 3116686578, "lat": 51.9202016, "lon": 4.4872081, "tags": {"addr:city": "Rotterdam", "addr:housenumber": "98", "addr:postcode": "3011PA", "addr:street": "Grotemarkt", "brand": "Albert Heijn", "brand:wikidata": "Q1653985", "brand:wikipedia": "nl:Albert Heijn (supermarkt)", "level": "-1", "name": "Albert Heijn", "opening_hours": "Mo-Sa 08:00-22:00; Su 09:00-22:00", "payment:cash": "yes", "phone": "+31 10 414 4698", "ref": "1670", "shop": "supermarket", "website": "https://www.ah.nl/winkel/1670", "wheelchair": "yes"}}, {"type": "node", "id": 3517208617, "lat": 51.9402823, "lon": 4.4795554, "tags": {"addr:city": "Rotterdam", "addr:housenumber": "26", "addr:postcode": "3036BA", "addr:street": "Bergweg", "brand": "Lidl", "brand:website": "https://www.lidl.nl/", "brand:wikidata": "Q151954", "brand:wikipedia": "nl:Lidl", "name": "Lidl", "opening_hours": "Mo-Sa 08:00-21:00; Su 09:00-21:00", "operator": "Lidl Nederland GmbH", "shop": "supermarket", "website": "https://www.lidl.nl/s/nl-NL/filialen/rotterdam/bergweg-26/", "wheelchair": "yes"}}, {"type": "node", "id": 3577090940, "lat": 51.9035135, "lon": 4.5052137, "tags": {"addr:city": "Rotterdam", "addr:housenumber": "1190", "addr:postcode": "3071AC", "addr:street": "Laan op Zuid", "brand": "Albert Heijn", "brand:wikidata": "Q1653985", "brand:wikipedia": "nl:Albert Heijn (supermarkt)", "name": "Albert Heijn", "opening_hours": "Mo-Fr 07:00-22:00; Sa,Su 08:00-22:00", "phone": "+31 10 484 5411", "shop": "supermarket", "source": "BAG", "source:date": "2016-02-24", "website": "https://www.ah.nl/winkel/1510"}}, {"type": "node", "id": 3951587362, "lat": 51.9163539, "lon": 4.52574, "tags": {"addr:city": "Rotterdam", "addr:housenumber": "50", "addr:postcode": "3062PA", "addr:street": "Burgemeester Oudlaan", "branch": "EUR Rotterdam", "brand": "SPAR university", "brand:website": "https://sparuniversity.nl/", "brand:wikidata": "Q124630660", "email": "eur@sparuniversity.nl", "name": "SPAR university", "opening_hours": "Mo-Fr 08:00-21:00, Sa-Su 09:00-21:00", "operator": "SPAR", "operator:wikidata": "Q610492", "phone": "+31 10 2540432", "shop": "supermarket", "website": "https://www.spar.nl/winkels/spar-university-eur-rotterdam-547/", "wheelchair": "yes"}}, {"type": "node", "id": 4003955768, "lat": 51.8908384, "lon": 4.479874, "tags": {"addr:city": "Rotterdam", "addr:housenumber": "15", "addr:postcode": "3083RC", "addr:street": "Ebenha\u00ebzerstraat", "branch": "Rotterdam Carnisse", "brand": "ALDI", "brand:wikidata": "Q41171373", "brand:wikipedia": "nl:Aldi", "name": "ALDI", "opening_hours": "Mo-Sa 08:30-20:00; Su 12:00-18:00", "shop": "supermarket"}}, {"type": "node", "id": 4037122293, "lat": 51.8963561, "lon": 4.5115308, "tags": {"addr:city": "Rotterdam", "addr:housenumber": "7", "addr:postcode": "3074RW", "addr:street": "Beijerlandse Passage", "brand": "Dirk", "brand:wikidata": "Q17502722", "brand:wikipedia": "en:Dirk (supermarket)", "name": "Dirk", "old_name": "Dirk van den Broek", "opening_hours": "Mo-Th,Sa 08:00-21:00; Fr 07:00-21:00; Su 09:00-20:00", "phone": "+31 88 313 4625", "shop": "supermarket", "source": "BAG", "source:date": "2016-02-24", "website": "https://dirk.nl/winkels/rotterdam/beijerlandsepassage/78", "wheelchair": "yes"}}, {"type": "node", "id": 4165745532, "lat": 51.9248736, "lon": 4.5101504, "tags": {"addr:city": "Rotterdam", "addr:housenumber": "81", "addr:postcode": "3061WL", "addr:street": "Lusthofstraat", "branch": "Rotterdam Kralingen", "brand": "ALDI", "brand:wikidata": "Q41171373", "brand:wikipedia": "en:Aldi", "check_date:opening_hours": "2024-07-25", "name": "ALDI", "opening_hours": "Mo-Sa 08:00-20:00, Su 12:00-18:00", "shop": "supermarket", "source": "BAG", "source:date": "2017-07-08"}}, {"type": "node", "id": 4167435072, "lat": 51.9203323, "lon": 4.4470949, "tags": {"addr:city": "Rotterdam", "addr:postcode": "3022PJ", "addr:street": "Buitenhofstraat", "name": "Sosan Supermarkt", "shop": "supermarket"}}, {"type": "node", "id": 4354656494, "lat": 51.92111, "lon": 4.4725518, "tags": {"addr:city": "Rotterdam", "addr:housenumber": "85", "addr:postcode": "3012CL", "addr:street": "Schouwburgplein", "brand": "Albert Heijn", "brand:wikidata": "Q1653985", "brand:wikipedia": "nl:Albert Heijn (supermarkt)", "check_date": "2025-04-11", "name": "Albert Heijn", "opening_hours": "Mo-Sa 08:00-22:00; Su 09:00-22:00", "phone": "+31 10 411 8686", "shop": "supermarket", "source": "BAG", "source:date": "2013-11-26", "website": "https://www.ah.nl/winkel/1658", "wheelchair": "yes"}}, {"type": "node", "id": 4379186090, "lat": 51.9199216, "lon": 4.4872802, "tags": {"name": "Wah Nam Hong", "ref": "108", "shop": "supermarket"}}, {"type": "node", "id": 4406738710, "lat": 51.9238537, "lon": 4.4881389, "tags": {"addr:city": "Rotterdam", "addr:housenumber": "9", "addr:postcode": "3011NB", "addr:street": "Mariniersweg", "name": "Gimsel", "opening_hours": "Mo-Fr 08:00-20:00; Sa 08:00-18:00", "organic": "only", "payment:cash": "yes", "payment:maestro": "yes", "shop": "supermarket", "website": "https://www.gimselrotterdam.nl/", "wheelchair": "yes", "wikimedia_commons": "Category:Gimsel, de Groene Passage"}}, {"type": "node", "id": 4485528422, "lat": 51.9068117, "lon": 4.4550091, "tags": {"name": "Supermarkt Ada", "shop": "supermarket"}}, {"type": "node", "id": 4538609065, "lat": 51.9036657, "lon": 4.5048492, "tags": {"addr:city": "Rotterdam", "addr:housenumber": "1178", "addr:postcode": "3071AC", "addr:street": "Laan op Zuid", "check_date": "2026-01-18", "name": "Start Fresh Food", "shop": "supermarket"}}, {"type": "node", "id": 4792121400, "lat": 51.8910848, "lon": 4.4802567, "tags": {"addr:city": "Rotterdam", "addr:housenumber": "156-172", "addr:postcode": "3083ES", "addr:street": "Pleinweg", "brand": "PLUS", "brand:wikidata": "Q1978981", "name": "PLUS", "opening_hours": "Mo-Sa 08:00-21:00; Su 10:00-21:00", "phone": "+31 10 481 3377", "shop": "supermarket", "website": "https://www.plus.nl/supermarkten/rotterdam_plus-rotterdam-pleinweg_973"}}, {"type": "node", "id": 4792155303, "lat": 51.9815587, "lon": 4.5818997, "tags": {"addr:city": "Rotterdam", "addr:housenumber": "402", "addr:postcode": "3059XT", "addr:street": "Sicili\u00ebboulevard", "brand": "Jumbo", "brand:wikidata": "Q2262314", "brand:wikipedia": "nl:Jumbo Supermarkten", "name": "Jumbo", "shop": "supermarket", "source": "BAG", "source:date": "2017-03-08", "website": "https://www.jumbo.com/winkels/jumbo-rotterdam-nesselande"}}, {"type": "node", "id": 4822767189, "lat": 51.8746436, "lon": 4.4670909, "tags": {"addr:city": "Rotterdam", "addr:housenumber": "10", "addr:postcode": "3086LW", "addr:street": "Krabbendijkestraat", "brand": "Albert Heijn", "brand:wikidata": "Q1653985", "brand:wikipedia": "nl:Albert Heijn (supermarkt)", "name": "Albert Heijn", "operator": "Albert Heijn", "phone": "+31 10 480 1387", "shop": "supermarket", "website": "https://www.ah.nl/winkel/1020"}}, {"type": "node", "id": 4972578232, "lat": 51.8849436, "lon": 4.4893085, "tags": {"addr:city": "Rotterdam", "addr:housenumber": "162", "addr:postcode": "3083BZ", "addr:street": "Zuiderterras", "brand": "Dirk", "brand:website": "https://www.dirk.nl", "brand:wikidata": "Q17502722", "level": "0", "name": "Dirk", "old_name": "Dirk van den Broek", "opening_hours": "Mo-Sa 07:00-21:00; Su 09:00-21:00", "phone": "+31 88 313 4775", "shop": "supermarket", "source": "BAG", "source:date": "2017-06-08", "website": "https://www.dirk.nl/winkels/rotterdam/zuiderterras/107"}}, {"type": "node", "id": 4974011502, "lat": 51.8966881, "lon": 4.5099676, "tags": {"addr:city": "Rotterdam", "addr:housenumber": "63", "addr:postcode": "3074GG", "addr:street": "Strijensestraat", "name": "T\u00e1nger Markt", "shop": "supermarket", "source": "BAG", "source:date": "2017-06-08"}}, {"type": "node", "id": 4974012128, "lat": 51.8927834, "lon": 4.5697671, "tags": {"branch": "Rotterdam - Beverwaard", "brand": "Hoogvliet", "brand:website": "https://www.hoogvliet.com", "brand:wikidata": "Q2770647", "brand:wikipedia": "nl:Hoogvliet (supermarkt)", "name": "Hoogvliet", "opening_hours": "Mo-Sa 08:00-21:00; Su 09:00-21:00", "phone": "+31 88 4572170", "shop": "supermarket", "website": "https://www.hoogvliet.com/winkelinformatie/rotterdam-beverwaard"}}, {"type": "node", "id": 4980276263, "lat": 51.9408718, "lon": 4.5489885, "tags": {"addr:city": "Rotterdam", "addr:housenumber": "5", "addr:postcode": "3067HP", "addr:street": "Samuel Esmeijerplein", "name": "ABI Supermarkt", "opening_hours": "Mo-Sa 08:00-19:00; Su 10:00-17:00", "phone": "+31 10 795 7513", "post_office": "post_partner", "post_office:brand": "DHL", "post_office:brand:wikidata": "Q489815", "post_office:parcel_from": "yes", "post_office:parcel_pickup": "yes", "post_office:parcel_to": "yes", "shop": "supermarket", "source": "BAG", "source:date": "2017-06-08"}}, {"type": "node", "id": 4980277500, "lat": 51.9466687, "lon": 4.555539, "tags": {"addr:city": "Rotterdam", "addr:housenumber": "32", "addr:postcode": "3067JV", "addr:street": "Kreeftstraat", "brand:website": "https://amazingoriental.com", "check_date": "2025-11-21", "cuisine": "chinese", "level": "0", "name": "Amazing Oriental", "name:zh-Hans": "\u4e1c\u65b9\u884c", "opening_hours": "Mo-Th 10:00-19:00; Fr 10:00-21:00; Sa 10:00-19:00; Su 12:00-18:00", "phone": "+31 10 310 5008", "shop": "supermarket", "source": "BAG", "source:date": "2017-06-08", "website": "https://amazingoriental.com/Location/winkels-rotterdam-alexandrium"}}, {"type": "node", "id": 4983811825, "lat": 51.9114851, "lon": 4.4531035, "tags": {"addr:city": "Rotterdam", "addr:housenumber": "386A", "addr:postcode": "3023ET", "addr:street": "Nieuwe Binnenweg", "name": "Tanger Markt", "shop": "supermarket", "source": "BAG", "source:date": "2017-06-08", "website": "https://tangermarkt.nl"}}, {"type": "node", "id": 4993061453, "lat": 51.9205303, "lon": 4.4821069, "tags": {"addr:city": "Rotterdam", "addr:housenumber": "1005", "addr:postcode": "3011PM", "addr:street": "Hoogstraat", "branch": "Rotterdam Hoogstraat", "brand": "Jumbo", "brand:website": "https://www.jumbo.com", "brand:wikidata": "Q2262314", "level": "-1", "name": "Jumbo", "opening_hours": "Mo-Sa 08:00-22:00; Su 10:00-22:00", "phone": "+31 10 3181010", "shop": "supermarket", "source": "BAG", "source:date": "2017-07-08", "website": "https://www.jumbo.com/winkel/rotterdam/jumbo-rotterdam-hoogstraat"}}, {"type": "node", "id": 4993062312, "lat": 51.924208, "lon": 4.4938982, "tags": {"addr:city": "Rotterdam", "addr:housenumber": "19A", "addr:postcode": "3031EB", "addr:street": "Goudsesingel", "brand": "Dirk", "brand:wikidata": "Q17502722", "brand:wikipedia": "en:Dirk (supermarket)", "name": "Dirk", "old_name": "Dirk van den Broek", "opening_hours": "Mo-Sa 07:00-21:00; Su 09:00-21:00", "shop": "supermarket", "source": "BAG", "source:date": "2017-07-08", "wheelchair": "no"}}, {"type": "node", "id": 4993062659, "lat": 51.9247336, "lon": 4.4878215, "tags": {"brand": "Albert Heijn", "brand:wikidata": "Q1653985", "check_date": "2025-03-18", "name": "Albert Heijn", "phone": "+31 88 659 2226", "shop": "supermarket", "website": "https://www.ah.nl/winkel/2226"}}, {"type": "node", "id": 4993094008, "lat": 51.924782, "lon": 4.5094772, "tags": {"addr:city": "Rotterdam", "addr:housenumber": "97", "addr:postcode": "3061WL", "addr:street": "Lusthofstraat", "brand": "Ekoplaza", "brand:wikidata": "Q47017915", "brand:wikipedia": "nl:Ekoplaza", "name": "Ekoplaza", "opening_hours": "Mo-Fr 08:30-19:00; Sa 08:30-18:00; Su 12:00-17:00", "organic": "only", "shop": "supermarket", "source": "BAG", "source:date": "2017-07-08"}}, {"type": "node", "id": 4993094121, "lat": 51.9250263, "lon": 4.5097868, "tags": {"addr:city": "Rotterdam", "addr:housenumber": "89", "addr:postcode": "3061WL", "addr:street": "Lusthofstraat", "brand": "Albert Heijn", "brand:wikidata": "Q1653985", "brand:wikipedia": "nl:Albert Heijn (supermarkt)", "name": "Albert Heijn", "opening_hours": "Mo-Sa 08:00-22:00; Su 09:00-22:00", "phone": "+31 10 413 1734", "shop": "supermarket", "source": "BAG", "source:date": "2017-07-08", "website": "https://www.ah.nl/winkel/1669"}}, {"type": "node", "id": 4993094707, "lat": 51.9175043, "lon": 4.4774554, "tags": {"addr:city": "Rotterdam", "addr:housenumber": "398", "addr:postcode": "3012GR", "addr:street": "Karel Doormanstraat", "brand": "Albert Heijn", "brand:wikidata": "Q1653985", "brand:wikipedia": "nl:Albert Heijn (supermarkt)", "name": "Albert Heijn", "opening_hours": "Mo-Sa 08:00-22:00; Su,PH 09:00-22:00", "phone": "+31 10 316 8823", "shop": "supermarket", "source": "BAG", "source:date": "2017-07-08", "website": "https://www.ah.nl/winkel/2212", "wheelchair": "yes"}}, {"type": "node", "id": 5051787129, "lat": 51.9236114, "lon": 4.4845822, "tags": {"addr:city": "Rotterdam", "addr:housenumber": "51-a", "addr:postcode": "3011ZD", "addr:street": "Lombardkade", "check_date": "2025-07-28", "name": "Little Italy", "opening_hours": "Mo-Sa 08:00-18:00", "shop": "supermarket", "wheelchair": "limited"}}, {"type": "node", "id": 5622883381, "lat": 51.9024297, "lon": 4.4959189, "tags": {"addr:city": "Rotterdam", "addr:housenumber": "77A", "addr:postcode": "3072JE", "addr:street": "Hillelaan", "brand": "Jumbo", "brand:wikidata": "Q2262314", "brand:wikipedia": "nl:Jumbo Supermarkten", "name": "Jumbo Rotterdam Hillelaan", "opening_hours": "Mo-Sa 07:00-22:00; Su 08:00-22:00", "shop": "supermarket", "source": "BAG", "source:date": "2018-05-16", "website": "https://www.jumbo.com/winkel/rotterdam/jumbo-rotterdam-hillelaan", "wheelchair": "yes"}}, {"type": "node", "id": 5648039743, "lat": 51.9056758, "lon": 4.4887514, "tags": {"addr:city": "Rotterdam", "addr:housenumber": "968", "addr:postcode": "3072MD", "addr:street": "Otto Reuchlinweg", "brand": "Albert Heijn", "brand:wikidata": "Q1653985", "brand:wikipedia": "nl:Albert Heijn (supermarkt)", "level": "0", "name": "Albert Heijn", "opening_hours": "Mo-Fr 07:00-22:00; Sa 08:00-22:00; Su 09:00-22:00", "phone": "+31 10 313 4970", "shop": "supermarket", "source": "BAG", "source:date": "2018-05-28", "website": "https://www.ah.nl/winkel/2210", "wheelchair": "yes"}}, {"type": "node", "id": 6982353678, "lat": 51.9186706, "lon": 4.459835, "tags": {"addr:city": "Rotterdam", "addr:housenumber": "115", "addr:postcode": "3021BD", "addr:street": "1e Middellandstraat", "brand": "Dirk", "brand:wikidata": "Q17502722", "brand:wikipedia": "en:Dirk (supermarket)", "level": "0", "name": "Dirk", "old_name": "Dirk van den Broek", "opening_hours": "Mo-Sa 08:00-21:00; Su 09:00-20:00", "shop": "supermarket", "website": "https://www.dirk.nl/winkels/rotterdam/1e-middellandstraat/72"}}, {"type": "node", "id": 7121804006, "lat": 51.9364172, "lon": 4.4798006, "tags": {"brand": "Albert Heijn", "brand:wikidata": "Q1653985", "brand:wikipedia": "nl:Albert Heijn (supermarkt)", "name": "Albert Heijn", "phone": "+31 10 466 2555", "shop": "supermarket", "website": "https://www.ah.nl/winkel/1447"}}, {"type": "node", "id": 8714648794, "lat": 51.8939389, "lon": 4.4967757, "tags": {"addr:city": "Rotterdam", "addr:housenumber": "121-131", "addr:postcode": "3073HG", "addr:street": "Putsebocht", "name": "Sahan", "opening_hours": "Mo-Th 08:00-19:30; Fr 08:00-21:00; Sa 08:00-18:00; Su 11:00-18:00", "phone": "+31 10 484 7476", "shop": "supermarket", "website": "https://supermarktsahan.nl/"}}, {"type": "node", "id": 9101302058, "lat": 51.8737373, "lon": 4.4906609, "tags": {"addr:city": "Rotterdam", "addr:housenumber": "191", "addr:postcode": "3085ER", "addr:street": "Slinge", "branch": "Rotterdam \u2013 Slinge", "brand": "Hoogvliet", "brand:website": "https://www.hoogvliet.com", "brand:wikidata": "Q2770647", "name": "Hoogvliet", "opening_hours": "Mo-Sa 08:00-20:00; Su 10:00-20:00", "phone": "+31 88 4572820", "shop": "supermarket", "source": "BAG", "source:date": "2021-09-08", "website": "https://www.hoogvliet.com/winkelinformatie/rotterdam-slinge"}}, {"type": "node", "id": 9103973394, "lat": 51.9177395, "lon": 4.4865261, "tags": {"addr:city": "Rotterdam", "addr:housenumber": "73Z", "addr:postcode": "3011WK", "addr:street": "Wijnhaven", "brand": "Jumbo", "brand:wikidata": "Q2262314", "check_date:opening_hours": "2025-08-18", "name": "Jumbo Rotterdam Wijnhaven", "opening_hours": "Mo-Sa 07:00-22:00", "payment:cards": "yes", "payment:cash": "yes", "payment:coins": "yes", "payment:notes": "yes", "phone": "+31 10 313 0760", "shop": "supermarket", "source": "BAG", "source:date": "2021-09-08", "website": "https://www.jumbo.com/winkel/rotterdam/jumbo-rotterdam-wijnhaven"}}, {"type": "node", "id": 9190980727, "lat": 51.9573224, "lon": 4.4942166, "tags": {"addr:city": "Rotterdam", "addr:housenumber": "92", "addr:postcode": "3054GG", "addr:street": "Bergse Dorpsstraat", "brand": "Ekoplaza", "brand:wikidata": "Q47017915", "brand:wikipedia": "nl:Ekoplaza", "name": "Ekoplaza", "opening_hours": "Mo-Sa 08:30-19:00; Su 12:00-17:00", "operator": "Ekoplaza", "organic": "only", "shop": "supermarket", "source": "BAG", "source:date": "2021-10-23"}}, {"type": "node", "id": 9365009636, "lat": 51.9038302, "lon": 4.4663426, "tags": {"brand": "Oriental Group", "brand:website": "https://amazingoriental.com", "brand:wikidata": "Q56683003", "cuisine": "chinese", "name": "Amazing Oriental", "name:zh-Hans": "\u4e1c\u65b9\u884c", "opening_hours": "Mo-Th, Sa 09:00-18:00; Fr 09:00-20:00; Su 12:00-17:00", "shop": "supermarket", "website": "https://amazingoriental.com/Location/winkels-rotterdam-parkhaven"}}, {"type": "node", "id": 9970460839, "lat": 51.8884745, "lon": 4.4896147, "tags": {"addr:city": "Rotterdam", "addr:housenumber": "60H", "addr:postcode": "3083CW", "addr:street": "Zuidplein", "brand": "Albert Heijn", "brand:wikidata": "Q1653985", "brand:wikipedia": "nl:Albert Heijn (supermarkt)", "description": "AH Zuidplein", "layer": "1", "name": "Albert Heijn", "opening_hours": "Mo-Sa 08:00-22:00, Su 09:00-22:00", "payment:cash": "yes", "payment:contactless": "yes", "payment:credit_cards": "yes", "payment:debit_cards": "yes", "phone": "+31 88 6591230", "shop": "supermarket", "source": "BAG;local knowledge", "source:date": "2022-08-22", "website": "https://www.ah.nl/winkel/1230"}}, {"type": "node", "id": 10178015784, "lat": 51.9100713, "lon": 4.4465044, "tags": {"addr:city": "Rotterdam", "addr:housenumber": "45B", "addr:postcode": "3026AC", "addr:street": "Schiedamseweg", "check_date": "2022-11-12", "name": "Kousar Tropical", "shop": "supermarket", "wheelchair": "yes"}}, {"type": "node", "id": 11257535833, "lat": 51.8934113, "lon": 4.536199, "tags": {"addr:city": "Rotterdam", "addr:housenumber": "13", "addr:postcode": "3078XS", "addr:street": "Sportsingel", "air_conditioning": "yes", "currency:EUR": "yes", "name": "Johan's Supermarkt", "opening_hours": "Mo-Su 12:00-21:00", "operator": "Johan's Supermarkt", "payment:cash": "yes", "payment:contactless": "yes", "payment:debit_cards": "yes", "payment:maestro": "yes", "shop": "supermarket", "toilets": "no"}}, {"type": "node", "id": 11262154500, "lat": 51.8883681, "lon": 4.491349, "tags": {"addr:city": "Rotterdam", "addr:housenumber": "624", "addr:postcode": "3083CX", "addr:street": "Zuidplein", "brand": "Lidl", "brand:website": "https://www.lidl.nl/", "brand:wikidata": "Q151954", "brand:wikipedia": "nl:Lidl", "name": "Lidl", "opening_hours": "Mo-Sa 08:00-21:00; Su 09:00-21:00", "operator": "Lidl Nederland GmbH", "phone": "+31 20 709 5039", "shop": "supermarket", "website": "https://www.lidl.nl/s/nl-NL/filialen/rotterdam/zuidplein-624/"}}, {"type": "node", "id": 12386150530, "lat": 51.8774254, "lon": 4.5212121, "tags": {"addr:city": "Rotterdam", "addr:housenumber": "187", "addr:postcode": "3076EL", "addr:street": "Spinozaweg", "brand": "Lidl", "brand:website": "https://www.lidl.nl/", "brand:wikidata": "Q151954", "brand:wikipedia": "nl:Lidl", "description": "LIDL, Spinozaweg, Rotterdam", "name": "Lidl", "opening_hours": "Mo-Sa 08:00-21:00; Su 10:00-20:00", "operator": "Lidl Nederland GmbH", "shop": "supermarket", "source": "BAG", "source:date": "2024-11-30", "website": "https://www.lidl.nl/s/nl-NL/filialen/rotterdam/spinozaweg-187/", "wheelchair": "yes"}}, {"type": "node", "id": 12913045727, "lat": 51.9424966, "lon": 4.4770473, "tags": {"addr:city": "Rotterdam", "addr:housenumber": "131A", "addr:postcode": "3051KA", "addr:street": "Ceintuurbaan", "branch": "Rotterdam - Ceintuurbaan", "brand": "Hoogvliet", "brand:website": "https://www.hoogvliet.com", "brand:wikidata": "Q2770647", "name": "Hoogvliet", "opening_hours": "Mo-Sa 08:00-20:00; Su 10:00-20:00", "phone": "+31 88 4572470", "shop": "supermarket", "source": "BAG", "source:date": "2025-06-11", "website": "https://www.hoogvliet.com/winkelinformatie/rotterdam-ceintuurbaan"}}, {"type": "node", "id": 13021549187, "lat": 51.9058411, "lon": 4.5051198, "tags": {"name": "Star Market", "shop": "supermarket"}}, {"type": "node", "id": 13174128859, "lat": 51.8988836, "lon": 4.5108554, "tags": {"addr:city": "Rotterdam", "addr:housenumber": "2A", "addr:postcode": "3074EJ", "addr:street": "Beijerlandselaan", "branch": "Rotterdam - Beijerlandselaan", "brand": "Hoogvliet", "brand:website": "https://www.hoogvliet.com", "brand:wikidata": "Q2770647", "fixme": "exacte locatie", "name": "Hoogvliet", "opening_hours": "Mo-Sa 08:00-21:00; Su 09:00-21:00", "phone": "+31 88 4572940", "shop": "supermarket", "website": "https://www.hoogvliet.com/winkelinformatie/rotterdam-beijerlandselaan"}}, {"type": "node", "id": 13245458816, "lat": 51.9235254, "lon": 4.4689943, "tags": {"addr:housenumber": "45", "addr:street": "Stationsplein", "brand": "Albert Heijn", "brand:wikidata": "Q1653985", "name": "Albert Heijn", "shop": "supermarket"}}, {"type": "node", "id": 13348120169, "lat": 51.920346, "lon": 4.4713222, "tags": {"addr:city": "Rotterdam", "addr:housenumber": "8", "addr:postcode": "3014GM", "addr:street": "Westersingel", "cuisine": "chinese", "name": "Wens", "shop": "supermarket", "source": "BAG", "source:date": "2013-11-26"}}, {"type": "node", "id": 13797928767, "lat": 51.9246986, "lon": 4.4307912, "tags": {"addr:city": "Rotterdam", "addr:housenumber": "1", "addr:postcode": "3044BC", "addr:street": "Van Nelleweg", "name": "Upfront Foodstore", "opening_hours": "Mo-Su 08:00-22:00", "shop": "supermarket", "source": "BAG;local knowledge", "source:date": "2014-03-24", "website": "https://foodstore.upfront.nl"}}]}